{
"type": "FeatureCollection",
"crs": { "type": "name", "properties": { "name": "urn:ogc:def:crs:OGC:1.3:CRS84" } },
                                                                                
"features": [
{ "type": "Feature", "properties": { "id": 5, "osm_id": "25975014", "name": "Place du Canada", "operator": "", "network": "", "highway": "bus_stop", "public_transport": "platform", "public_transport_version": "", "ref": "", "mapping_key": "highway", "mapping_value": "bus_stop" }, "geometry": { "type": "Point", "coordinates": [ -0.371713307270824, 49.185289077445752 ] } },
{ "type": "Feature", "properties": { "id": 72, "osm_id": "205362539", "name": "Saint-Nicolas", "operator": "", "network": "", "highway": "bus_stop", "public_transport": "platform", "public_transport_version": "", "ref": "", "mapping_key": "highway", "mapping_value": "bus_stop" }, "geometry": { "type": "Point", "coordinates": [ -0.375732178385419, 49.184020141124293 ] } },
{ "type": "Feature", "properties": { "id": 86, "osm_id": "303160098", "name": "Union", "operator": "", "network": "", "highway": "bus_stop", "public_transport": "platform", "public_transport_version": "", "ref": "", "mapping_key": "highway", "mapping_value": "bus_stop" }, "geometry": { "type": "Point", "coordinates": [ -0.355029380461048, 49.169941058363719 ] } },
{ "type": "Feature", "properties": { "id": 103, "osm_id": "414946118", "name": "", "operator": "", "network": "", "highway": "bus_stop", "public_transport": "platform", "public_transport_version": "", "ref": "", "mapping_key": "highway", "mapping_value": "bus_stop" }, "geometry": { "type": "Point", "coordinates": [ -0.359998256481333, 49.197042182075634 ] } },
{ "type": "Feature", "properties": { "id": 104, "osm_id": "414946122", "name": "", "operator": "", "network": "", "highway": "bus_stop", "public_transport": "platform", "public_transport_version": "", "ref": "", "mapping_key": "highway", "mapping_value": "bus_stop" }, "geometry": { "type": "Point", "coordinates": [ -0.355302043771275, 49.199529176566259 ] } },
{ "type": "Feature", "properties": { "id": 105, "osm_id": "414946124", "name": "", "operator": "", "network": "", "highway": "bus_stop", "public_transport": "platform", "public_transport_version": "", "ref": "", "mapping_key": "highway", "mapping_value": "bus_stop" }, "geometry": { "type": "Point", "coordinates": [ -0.353897739713574, 49.199425324785956 ] } },
{ "type": "Feature", "properties": { "id": 107, "osm_id": "447812526", "name": "Église d'Épron", "operator": "", "network": "", "highway": "bus_stop", "public_transport": "platform", "public_transport_version": "", "ref": "", "mapping_key": "highway", "mapping_value": "bus_stop" }, "geometry": { "type": "Point", "coordinates": [ -0.37273154086833, 49.221170077093831 ] } },
{ "type": "Feature", "properties": { "id": 123, "osm_id": "732536817", "name": "", "operator": "", "network": "", "highway": "bus_stop", "public_transport": "platform", "public_transport_version": "", "ref": "", "mapping_key": "highway", "mapping_value": "bus_stop" }, "geometry": { "type": "Point", "coordinates": [ -0.373137224981946, 49.21137397921688 ] } },
{ "type": "Feature", "properties": { "id": 124, "osm_id": "732536828", "name": "", "operator": "", "network": "", "highway": "bus_stop", "public_transport": "platform", "public_transport_version": "", "ref": "", "mapping_key": "highway", "mapping_value": "bus_stop" }, "geometry": { "type": "Point", "coordinates": [ -0.373338977391313, 49.211457882067656 ] } },
{ "type": "Feature", "properties": { "id": 138, "osm_id": "1132553149", "name": "", "operator": "", "network": "", "highway": "bus_stop", "public_transport": "platform", "public_transport_version": "", "ref": "", "mapping_key": "highway", "mapping_value": "bus_stop" }, "geometry": { "type": "Point", "coordinates": [ -0.339382630349945, 49.202792251471742 ] } },
{ "type": "Feature", "properties": { "id": 143, "osm_id": "1222431224", "name": "Ouistreham Gare Maritime", "operator": "", "network": "", "highway": "bus_stop", "public_transport": "platform", "public_transport_version": "", "ref": "", "mapping_key": "highway", "mapping_value": "bus_stop" }, "geometry": { "type": "Point", "coordinates": [ -0.249879830072842, 49.283698655673099 ] } },
{ "type": "Feature", "properties": { "id": 151, "osm_id": "1249835620", "name": "Épron Mairie", "operator": "", "network": "", "highway": "bus_stop", "public_transport": "platform", "public_transport_version": "", "ref": "", "mapping_key": "highway", "mapping_value": "bus_stop" }, "geometry": { "type": "Point", "coordinates": [ -0.370939573788888, 49.222859868773618 ] } },
{ "type": "Feature", "properties": { "id": 161, "osm_id": "1416652970", "name": "", "operator": "", "network": "", "highway": "bus_stop", "public_transport": "platform", "public_transport_version": "", "ref": "", "mapping_key": "highway", "mapping_value": "bus_stop" }, "geometry": { "type": "Point", "coordinates": [ -0.346799944106238, 49.198809422540755 ] } },
{ "type": "Feature", "properties": { "id": 162, "osm_id": "1417643407", "name": "", "operator": "", "network": "", "highway": "bus_stop", "public_transport": "platform", "public_transport_version": "", "ref": "", "mapping_key": "highway", "mapping_value": "bus_stop" }, "geometry": { "type": "Point", "coordinates": [ -0.34691251306586, 49.198894750315027 ] } },
{ "type": "Feature", "properties": { "id": 163, "osm_id": "1449681738", "name": "Théâtre", "operator": "", "network": "", "highway": "bus_stop", "public_transport": "platform", "public_transport_version": "", "ref": "", "mapping_key": "highway", "mapping_value": "bus_stop" }, "geometry": { "type": "Point", "coordinates": [ -0.362460272900478, 49.180626392348387 ] } },
{ "type": "Feature", "properties": { "id": 164, "osm_id": "1449683335", "name": "Bellivet", "operator": "", "network": "", "highway": "bus_stop", "public_transport": "platform", "public_transport_version": "", "ref": "", "mapping_key": "highway", "mapping_value": "bus_stop" }, "geometry": { "type": "Point", "coordinates": [ -0.360318864277701, 49.182814320533758 ] } },
{ "type": "Feature", "properties": { "id": 165, "osm_id": "1449683336", "name": "Place Fontette", "operator": "Twisto", "network": "", "highway": "bus_stop", "public_transport": "platform", "public_transport_version": "", "ref": "", "mapping_key": "highway", "mapping_value": "bus_stop" }, "geometry": { "type": "Point", "coordinates": [ -0.370974274868018, 49.181893652289183 ] } },
{ "type": "Feature", "properties": { "id": 166, "osm_id": "1449683338", "name": "Maréchal Leclerc", "operator": "", "network": "", "highway": "bus_stop", "public_transport": "platform", "public_transport_version": "", "ref": "", "mapping_key": "highway", "mapping_value": "bus_stop" }, "geometry": { "type": "Point", "coordinates": [ -0.361623423687632, 49.183125372960525 ] } },
{ "type": "Feature", "properties": { "id": 167, "osm_id": "1449683394", "name": "Hôtel de Ville de Caen", "operator": "", "network": "", "highway": "bus_stop", "public_transport": "platform", "public_transport_version": "", "ref": "", "mapping_key": "highway", "mapping_value": "bus_stop" }, "geometry": { "type": "Point", "coordinates": [ -0.370452752852543, 49.181505653991259 ] } },
{ "type": "Feature", "properties": { "id": 168, "osm_id": "1449683693", "name": "Espace Gardin", "operator": "", "network": "", "highway": "bus_stop", "public_transport": "platform", "public_transport_version": "", "ref": "", "mapping_key": "highway", "mapping_value": "bus_stop" }, "geometry": { "type": "Point", "coordinates": [ -0.365720581777879, 49.179716285301794 ] } },
{ "type": "Feature", "properties": { "id": 171, "osm_id": "1475174628", "name": "Rostand Fresnel", "operator": "", "network": "", "highway": "bus_stop", "public_transport": "platform", "public_transport_version": "", "ref": "", "mapping_key": "highway", "mapping_value": "bus_stop" }, "geometry": { "type": "Point", "coordinates": [ -0.353955071931296, 49.16200121676362 ] } },
{ "type": "Feature", "properties": { "id": 172, "osm_id": "1475174630", "name": "Rostand Fresnel", "operator": "", "network": "", "highway": "bus_stop", "public_transport": "platform", "public_transport_version": "", "ref": "", "mapping_key": "highway", "mapping_value": "bus_stop" }, "geometry": { "type": "Point", "coordinates": [ -0.354329743003149, 49.162168351912889 ] } },
{ "type": "Feature", "properties": { "id": 173, "osm_id": "1509000031", "name": "Normandika", "operator": "", "network": "", "highway": "bus_stop", "public_transport": "platform", "public_transport_version": "", "ref": "", "mapping_key": "highway", "mapping_value": "bus_stop" }, "geometry": { "type": "Point", "coordinates": [ -0.366668155931649, 49.145632030418014 ] } },
{ "type": "Feature", "properties": { "id": 179, "osm_id": "1611557609", "name": "Bas Lion", "operator": "", "network": "", "highway": "bus_stop", "public_transport": "platform", "public_transport_version": "", "ref": "", "mapping_key": "highway", "mapping_value": "bus_stop" }, "geometry": { "type": "Point", "coordinates": [ -0.318807153534749, 49.302236827102909 ] } },
{ "type": "Feature", "properties": { "id": 180, "osm_id": "1611557610", "name": "", "operator": "", "network": "", "highway": "bus_stop", "public_transport": "platform", "public_transport_version": "", "ref": "", "mapping_key": "highway", "mapping_value": "bus_stop" }, "geometry": { "type": "Point", "coordinates": [ -0.309967933724096, 49.29032245465595 ] } },
{ "type": "Feature", "properties": { "id": 181, "osm_id": "1611557612", "name": "", "operator": "", "network": "", "highway": "bus_stop", "public_transport": "platform", "public_transport_version": "", "ref": "", "mapping_key": "highway", "mapping_value": "bus_stop" }, "geometry": { "type": "Point", "coordinates": [ -0.316890966650249, 49.281350968413214 ] } },
{ "type": "Feature", "properties": { "id": 182, "osm_id": "1611557614", "name": "Haut Lion", "operator": "", "network": "", "highway": "bus_stop", "public_transport": "platform", "public_transport_version": "", "ref": "", "mapping_key": "highway", "mapping_value": "bus_stop" }, "geometry": { "type": "Point", "coordinates": [ -0.326467710121165, 49.301412299287719 ] } },
{ "type": "Feature", "properties": { "id": 183, "osm_id": "1611557615", "name": "", "operator": "", "network": "", "highway": "bus_stop", "public_transport": "platform", "public_transport_version": "", "ref": "", "mapping_key": "highway", "mapping_value": "bus_stop" }, "geometry": { "type": "Point", "coordinates": [ -0.305382781231089, 49.297869855549514 ] } },
{ "type": "Feature", "properties": { "id": 184, "osm_id": "1611557616", "name": "", "operator": "", "network": "", "highway": "bus_stop", "public_transport": "platform", "public_transport_version": "", "ref": "", "mapping_key": "highway", "mapping_value": "bus_stop" }, "geometry": { "type": "Point", "coordinates": [ -0.305645218619446, 49.29774203152612 ] } },
{ "type": "Feature", "properties": { "id": 185, "osm_id": "1611557618", "name": "", "operator": "", "network": "", "highway": "bus_stop", "public_transport": "platform", "public_transport_version": "", "ref": "", "mapping_key": "highway", "mapping_value": "bus_stop" }, "geometry": { "type": "Point", "coordinates": [ -0.312860612328308, 49.286726366737433 ] } },
{ "type": "Feature", "properties": { "id": 186, "osm_id": "1611557619", "name": "", "operator": "", "network": "", "highway": "bus_stop", "public_transport": "platform", "public_transport_version": "", "ref": "", "mapping_key": "highway", "mapping_value": "bus_stop" }, "geometry": { "type": "Point", "coordinates": [ -0.304585075506054, 49.294467557232352 ] } },
{ "type": "Feature", "properties": { "id": 189, "osm_id": "1637201365", "name": "Le Méridien", "operator": "", "network": "", "highway": "bus_stop", "public_transport": "platform", "public_transport_version": "", "ref": "", "mapping_key": "highway", "mapping_value": "bus_stop" }, "geometry": { "type": "Point", "coordinates": [ -0.392104549854253, 49.190827252329584 ] } },
{ "type": "Feature", "properties": { "id": 196, "osm_id": "1668749207", "name": "", "operator": "", "network": "", "highway": "bus_stop", "public_transport": "platform", "public_transport_version": "", "ref": "", "mapping_key": "highway", "mapping_value": "bus_stop" }, "geometry": { "type": "Point", "coordinates": [ -0.359268276533953, 49.198486970725668 ] } },
{ "type": "Feature", "properties": { "id": 197, "osm_id": "1668749209", "name": "", "operator": "", "network": "", "highway": "bus_stop", "public_transport": "platform", "public_transport_version": "", "ref": "", "mapping_key": "highway", "mapping_value": "bus_stop" }, "geometry": { "type": "Point", "coordinates": [ -0.364077058203634, 49.198952250170819 ] } },
{ "type": "Feature", "properties": { "id": 199, "osm_id": "1669205824", "name": "Place du Canada", "operator": "", "network": "", "highway": "bus_stop", "public_transport": "platform", "public_transport_version": "", "ref": "", "mapping_key": "highway", "mapping_value": "bus_stop" }, "geometry": { "type": "Point", "coordinates": [ -0.371614736089498, 49.185574481248807 ] } },
{ "type": "Feature", "properties": { "id": 201, "osm_id": "1669205856", "name": "Authie Mauvis", "operator": "", "network": "", "highway": "bus_stop", "public_transport": "platform", "public_transport_version": "", "ref": "", "mapping_key": "highway", "mapping_value": "bus_stop" }, "geometry": { "type": "Point", "coordinates": [ -0.398054276183899, 49.191516496227521 ] } },
{ "type": "Feature", "properties": { "id": 202, "osm_id": "1669205859", "name": "Stockholm", "operator": "", "network": "", "highway": "bus_stop", "public_transport": "platform", "public_transport_version": "", "ref": "", "mapping_key": "highway", "mapping_value": "bus_stop" }, "geometry": { "type": "Point", "coordinates": [ -0.389465004725878, 49.188501693294086 ] } },
{ "type": "Feature", "properties": { "id": 203, "osm_id": "1669205874", "name": "Charles de Gaulle", "operator": "", "network": "", "highway": "bus_stop", "public_transport": "platform", "public_transport_version": "", "ref": "", "mapping_key": "highway", "mapping_value": "bus_stop" }, "geometry": { "type": "Point", "coordinates": [ -0.378760643821039, 49.184466058373147 ] } },
{ "type": "Feature", "properties": { "id": 205, "osm_id": "1669205884", "name": "Place Saint-Martin", "operator": "", "network": "", "highway": "bus_stop", "public_transport": "platform", "public_transport_version": "", "ref": "", "mapping_key": "highway", "mapping_value": "bus_stop" }, "geometry": { "type": "Point", "coordinates": [ -0.370274218314961, 49.183797350137951 ] } },
{ "type": "Feature", "properties": { "id": 206, "osm_id": "1669205889", "name": "Chardonnerets", "operator": "", "network": "", "highway": "bus_stop", "public_transport": "platform", "public_transport_version": "", "ref": "", "mapping_key": "highway", "mapping_value": "bus_stop" }, "geometry": { "type": "Point", "coordinates": [ -0.393288242220422, 49.192189982147518 ] } },
{ "type": "Feature", "properties": { "id": 207, "osm_id": "1669205937", "name": "Poilus d'Orient", "operator": "", "network": "", "highway": "bus_stop", "public_transport": "platform", "public_transport_version": "", "ref": "", "mapping_key": "highway", "mapping_value": "bus_stop" }, "geometry": { "type": "Point", "coordinates": [ -0.383000713360417, 49.185087073579261 ] } },
{ "type": "Feature", "properties": { "id": 208, "osm_id": "1669205944", "name": "Le Méridien", "operator": "", "network": "", "highway": "bus_stop", "public_transport": "platform", "public_transport_version": "", "ref": "", "mapping_key": "highway", "mapping_value": "bus_stop" }, "geometry": { "type": "Point", "coordinates": [ -0.391854852958716, 49.190904198200691 ] } },
{ "type": "Feature", "properties": { "id": 209, "osm_id": "1669205948", "name": "Poilus d'Orient", "operator": "", "network": "", "highway": "bus_stop", "public_transport": "platform", "public_transport_version": "", "ref": "", "mapping_key": "highway", "mapping_value": "bus_stop" }, "geometry": { "type": "Point", "coordinates": [ -0.382826453593424, 49.185162426888809 ] } },
{ "type": "Feature", "properties": { "id": 211, "osm_id": "1669205984", "name": "Chardonnerets", "operator": "", "network": "", "highway": "bus_stop", "public_transport": "platform", "public_transport_version": "", "ref": "", "mapping_key": "highway", "mapping_value": "bus_stop" }, "geometry": { "type": "Point", "coordinates": [ -0.393073749318205, 49.192312777029017 ] } },
{ "type": "Feature", "properties": { "id": 212, "osm_id": "1669205987", "name": "Collège Dunois", "operator": "Keolis", "network": "", "highway": "bus_stop", "public_transport": "platform", "public_transport_version": "", "ref": "", "mapping_key": "highway", "mapping_value": "bus_stop" }, "geometry": { "type": "Point", "coordinates": [ -0.386732839567429, 49.186334384590502 ] } },
{ "type": "Feature", "properties": { "id": 213, "osm_id": "1669234470", "name": "Saint-Jean", "operator": "", "network": "", "highway": "bus_stop", "public_transport": "platform", "public_transport_version": "", "ref": "", "mapping_key": "highway", "mapping_value": "bus_stop" }, "geometry": { "type": "Point", "coordinates": [ -0.358556066221297, 49.180678527786128 ] } },
{ "type": "Feature", "properties": { "id": 216, "osm_id": "1669234496", "name": "Saint-Jean", "operator": "", "network": "", "highway": "bus_stop", "public_transport": "platform", "public_transport_version": "", "ref": "", "mapping_key": "highway", "mapping_value": "bus_stop" }, "geometry": { "type": "Point", "coordinates": [ -0.358331515035275, 49.180837364851278 ] } },
{ "type": "Feature", "properties": { "id": 219, "osm_id": "1678025667", "name": "Tour Leroy", "operator": "", "network": "", "highway": "bus_stop", "public_transport": "platform", "public_transport_version": "", "ref": "", "mapping_key": "highway", "mapping_value": "bus_stop" }, "geometry": { "type": "Point", "coordinates": [ -0.358215341857289, 49.184366062268261 ] } },
{ "type": "Feature", "properties": { "id": 220, "osm_id": "1678025668", "name": "Tour Leroy", "operator": "", "network": "", "highway": "bus_stop", "public_transport": "platform", "public_transport_version": "", "ref": "", "mapping_key": "highway", "mapping_value": "bus_stop" }, "geometry": { "type": "Point", "coordinates": [ -0.358334364882353, 49.184370588495987 ] } },
{ "type": "Feature", "properties": { "id": 221, "osm_id": "1678025669", "name": "Tour Leroy", "operator": "", "network": "", "highway": "bus_stop", "public_transport": "platform", "public_transport_version": "", "ref": "", "mapping_key": "highway", "mapping_value": "bus_stop" }, "geometry": { "type": "Point", "coordinates": [ -0.358460261068018, 49.184374276533383 ] } },
{ "type": "Feature", "properties": { "id": 222, "osm_id": "1678025670", "name": "Place Courtonne", "operator": "", "network": "", "highway": "bus_stop", "public_transport": "platform", "public_transport_version": "", "ref": "", "mapping_key": "highway", "mapping_value": "bus_stop" }, "geometry": { "type": "Point", "coordinates": [ -0.358173013246272, 49.184422891571785 ] } },
{ "type": "Feature", "properties": { "id": 223, "osm_id": "1678025671", "name": "Place Courtonne", "operator": "", "network": "", "highway": "bus_stop", "public_transport": "platform", "public_transport_version": "", "ref": "", "mapping_key": "highway", "mapping_value": "bus_stop" }, "geometry": { "type": "Point", "coordinates": [ -0.358288515872005, 49.184428172170819 ] } },
{ "type": "Feature", "properties": { "id": 224, "osm_id": "1678025672", "name": "Place Courtonne", "operator": "", "network": "", "highway": "bus_stop", "public_transport": "platform", "public_transport_version": "", "ref": "", "mapping_key": "highway", "mapping_value": "bus_stop" }, "geometry": { "type": "Point", "coordinates": [ -0.358396139508756, 49.184431022017883 ] } },
{ "type": "Feature", "properties": { "id": 225, "osm_id": "1678025673", "name": "Place Courtonne", "operator": "", "network": "", "highway": "bus_stop", "public_transport": "platform", "public_transport_version": "", "ref": "", "mapping_key": "highway", "mapping_value": "bus_stop" }, "geometry": { "type": "Point", "coordinates": [ -0.358477108693393, 49.184520792200857 ] } },
{ "type": "Feature", "properties": { "id": 226, "osm_id": "1678025674", "name": "Place Courtonne", "operator": "", "network": "", "highway": "bus_stop", "public_transport": "platform", "public_transport_version": "", "ref": "", "mapping_key": "highway", "mapping_value": "bus_stop" }, "geometry": { "type": "Point", "coordinates": [ -0.358363869181517, 49.184522217124389 ] } },
{ "type": "Feature", "properties": { "id": 229, "osm_id": "1678136496", "name": "Caen", "operator": "STDC", "network": "", "highway": "bus_stop", "public_transport": "platform", "public_transport_version": "", "ref": "", "mapping_key": "highway", "mapping_value": "bus_stop" }, "geometry": { "type": "Point", "coordinates": [ -0.346675137567985, 49.176511632261487 ] } },
{ "type": "Feature", "properties": { "id": 231, "osm_id": "1700377952", "name": "Château de Bénouville", "operator": "", "network": "", "highway": "bus_stop", "public_transport": "platform", "public_transport_version": "", "ref": "", "mapping_key": "highway", "mapping_value": "bus_stop" }, "geometry": { "type": "Point", "coordinates": [ -0.283335358399597, 49.239105841142582 ] } },
{ "type": "Feature", "properties": { "id": 232, "osm_id": "1700377963", "name": "", "operator": "", "network": "", "highway": "bus_stop", "public_transport": "platform", "public_transport_version": "", "ref": "", "mapping_key": "highway", "mapping_value": "bus_stop" }, "geometry": { "type": "Point", "coordinates": [ -0.286671942595888, 49.236005291339666 ] } },
{ "type": "Feature", "properties": { "id": 233, "osm_id": "1700377978", "name": "", "operator": "", "network": "", "highway": "bus_stop", "public_transport": "platform", "public_transport_version": "", "ref": "", "mapping_key": "highway", "mapping_value": "bus_stop" }, "geometry": { "type": "Point", "coordinates": [ -0.290284710501737, 49.233057795088712 ] } },
{ "type": "Feature", "properties": { "id": 234, "osm_id": "1700377992", "name": "Église de Bénouville", "operator": "", "network": "", "highway": "bus_stop", "public_transport": "platform", "public_transport_version": "", "ref": "", "mapping_key": "highway", "mapping_value": "bus_stop" }, "geometry": { "type": "Point", "coordinates": [ -0.276532102869794, 49.246405556797363 ] } },
{ "type": "Feature", "properties": { "id": 235, "osm_id": "1700378014", "name": "Mairie de Bénouville", "operator": "", "network": "", "highway": "bus_stop", "public_transport": "platform", "public_transport_version": "", "ref": "", "mapping_key": "highway", "mapping_value": "bus_stop" }, "geometry": { "type": "Point", "coordinates": [ -0.278697483735641, 49.24288725294025 ] } },
{ "type": "Feature", "properties": { "id": 236, "osm_id": "1700873551", "name": "Église de Bénouville", "operator": "", "network": "", "highway": "bus_stop", "public_transport": "platform", "public_transport_version": "", "ref": "", "mapping_key": "highway", "mapping_value": "bus_stop" }, "geometry": { "type": "Point", "coordinates": [ -0.276393130915181, 49.246478730812058 ] } },
{ "type": "Feature", "properties": { "id": 237, "osm_id": "1710523946", "name": "", "operator": "", "network": "", "highway": "bus_stop", "public_transport": "platform", "public_transport_version": "", "ref": "", "mapping_key": "highway", "mapping_value": "bus_stop" }, "geometry": { "type": "Point", "coordinates": [ -0.369799467319211, 49.25436266511803 ] } },
{ "type": "Feature", "properties": { "id": 242, "osm_id": "1734652832", "name": "Barthou", "operator": "", "network": "", "highway": "bus_stop", "public_transport": "platform", "public_transport_version": "", "ref": "", "mapping_key": "highway", "mapping_value": "bus_stop" }, "geometry": { "type": "Point", "coordinates": [ -0.331390066578848, 49.172457473334511 ] } },
{ "type": "Feature", "properties": { "id": 243, "osm_id": "1734652869", "name": "Rue d'Auge", "operator": "", "network": "", "highway": "bus_stop", "public_transport": "platform", "public_transport_version": "", "ref": "", "mapping_key": "highway", "mapping_value": "bus_stop" }, "geometry": { "type": "Point", "coordinates": [ -0.342645369979266, 49.17471497131622 ] } },
{ "type": "Feature", "properties": { "id": 244, "osm_id": "1734652873", "name": "Barthou", "operator": "", "network": "", "highway": "bus_stop", "public_transport": "platform", "public_transport_version": "", "ref": "", "mapping_key": "highway", "mapping_value": "bus_stop" }, "geometry": { "type": "Point", "coordinates": [ -0.331196109339402, 49.172535676491115 ] } },
{ "type": "Feature", "properties": { "id": 245, "osm_id": "1734652888", "name": "Marcelin Berthelot", "operator": "", "network": "", "highway": "bus_stop", "public_transport": "platform", "public_transport_version": "", "ref": "", "mapping_key": "highway", "mapping_value": "bus_stop" }, "geometry": { "type": "Point", "coordinates": [ -0.300733842454918, 49.162096519002695 ] } },
{ "type": "Feature", "properties": { "id": 246, "osm_id": "1734652916", "name": "Maurice Fouques", "operator": "", "network": "", "highway": "bus_stop", "public_transport": "platform", "public_transport_version": "", "ref": "", "mapping_key": "highway", "mapping_value": "bus_stop" }, "geometry": { "type": "Point", "coordinates": [ -0.329370866104341, 49.171770744007503 ] } },
{ "type": "Feature", "properties": { "id": 247, "osm_id": "1734652935", "name": "Rue d'Auge", "operator": "", "network": "", "highway": "bus_stop", "public_transport": "platform", "public_transport_version": "", "ref": "", "mapping_key": "highway", "mapping_value": "bus_stop" }, "geometry": { "type": "Point", "coordinates": [ -0.343807939949443, 49.174849333224088 ] } },
{ "type": "Feature", "properties": { "id": 248, "osm_id": "1734652943", "name": "Route de Paris", "operator": "", "network": "", "highway": "bus_stop", "public_transport": "platform", "public_transport_version": "", "ref": "", "mapping_key": "highway", "mapping_value": "bus_stop" }, "geometry": { "type": "Point", "coordinates": [ -0.323845012618165, 49.169934352841203 ] } },
{ "type": "Feature", "properties": { "id": 249, "osm_id": "1734652945", "name": "Tampleu", "operator": "", "network": "", "highway": "bus_stop", "public_transport": "platform", "public_transport_version": "", "ref": "", "mapping_key": "highway", "mapping_value": "bus_stop" }, "geometry": { "type": "Point", "coordinates": [ -0.298929553977814, 49.161809271180928 ] } },
{ "type": "Feature", "properties": { "id": 250, "osm_id": "1734652951", "name": "Robert Bosch", "operator": "", "network": "", "highway": "bus_stop", "public_transport": "platform", "public_transport_version": "", "ref": "", "mapping_key": "highway", "mapping_value": "bus_stop" }, "geometry": { "type": "Point", "coordinates": [ -0.313924359660064, 49.166533227990499 ] } },
{ "type": "Feature", "properties": { "id": 251, "osm_id": "1734652974", "name": "Mondeville 2 Centre Commercial", "operator": "", "network": "", "highway": "bus_stop", "public_transport": "platform", "public_transport_version": "", "ref": "", "mapping_key": "highway", "mapping_value": "bus_stop" }, "geometry": { "type": "Point", "coordinates": [ -0.294987544915301, 49.164274640361349 ] } },
{ "type": "Feature", "properties": { "id": 252, "osm_id": "1734652987", "name": "Maurice Fouques", "operator": "", "network": "", "highway": "bus_stop", "public_transport": "platform", "public_transport_version": "", "ref": "", "mapping_key": "highway", "mapping_value": "bus_stop" }, "geometry": { "type": "Point", "coordinates": [ -0.328709701581999, 49.171726236101648 ] } },
{ "type": "Feature", "properties": { "id": 253, "osm_id": "1734653014", "name": "Demi-Lune", "operator": "", "network": "", "highway": "bus_stop", "public_transport": "platform", "public_transport_version": "", "ref": "", "mapping_key": "highway", "mapping_value": "bus_stop" }, "geometry": { "type": "Point", "coordinates": [ -0.33934281630988, 49.174645485338914 ] } },
{ "type": "Feature", "properties": { "id": 254, "osm_id": "1734653015", "name": "Route de Paris", "operator": "", "network": "", "highway": "bus_stop", "public_transport": "platform", "public_transport_version": "", "ref": "", "mapping_key": "highway", "mapping_value": "bus_stop" }, "geometry": { "type": "Point", "coordinates": [ -0.324108958749093, 49.170165777187833 ] } },
{ "type": "Feature", "properties": { "id": 255, "osm_id": "1734653018", "name": "Charles de Coulomb", "operator": "", "network": "", "highway": "bus_stop", "public_transport": "platform", "public_transport_version": "", "ref": "", "mapping_key": "highway", "mapping_value": "bus_stop" }, "geometry": { "type": "Point", "coordinates": [ -0.317845665421714, 49.167902830969055 ] } },
{ "type": "Feature", "properties": { "id": 257, "osm_id": "1734653029", "name": "Pasteur", "operator": "", "network": "", "highway": "bus_stop", "public_transport": "platform", "public_transport_version": "", "ref": "", "mapping_key": "highway", "mapping_value": "bus_stop" }, "geometry": { "type": "Point", "coordinates": [ -0.335289244116126, 49.173499092441887 ] } },
{ "type": "Feature", "properties": { "id": 258, "osm_id": "1734653034", "name": "Demi-Lune", "operator": "", "network": "", "highway": "bus_stop", "public_transport": "platform", "public_transport_version": "", "ref": "", "mapping_key": "highway", "mapping_value": "bus_stop" }, "geometry": { "type": "Point", "coordinates": [ -0.338596407832256, 49.174875317123927 ] } },
{ "type": "Feature", "properties": { "id": 259, "osm_id": "1734653036", "name": "Charles de Coulomb", "operator": "", "network": "", "highway": "bus_stop", "public_transport": "platform", "public_transport_version": "", "ref": "", "mapping_key": "highway", "mapping_value": "bus_stop" }, "geometry": { "type": "Point", "coordinates": [ -0.318760717791179, 49.168153030778804 ] } },
{ "type": "Feature", "properties": { "id": 260, "osm_id": "1734653077", "name": "Z.I. Mondeville", "operator": "", "network": "", "highway": "bus_stop", "public_transport": "platform", "public_transport_version": "", "ref": "", "mapping_key": "highway", "mapping_value": "bus_stop" }, "geometry": { "type": "Point", "coordinates": [ -0.309503073374088, 49.165030017475381 ] } },
{ "type": "Feature", "properties": { "id": 261, "osm_id": "1735282327", "name": "La Folie-Mémorial", "operator": "", "network": "", "highway": "bus_stop", "public_transport": "platform", "public_transport_version": "", "ref": "", "mapping_key": "highway", "mapping_value": "bus_stop" }, "geometry": { "type": "Point", "coordinates": [ -0.382402916026081, 49.198482360678909 ] } },
{ "type": "Feature", "properties": { "id": 262, "osm_id": "1735282338", "name": "Rectorat", "operator": "", "network": "", "highway": "bus_stop", "public_transport": "platform", "public_transport_version": "", "ref": "", "mapping_key": "highway", "mapping_value": "bus_stop" }, "geometry": { "type": "Point", "coordinates": [ -0.381816350441994, 49.177404053492317 ] } },
{ "type": "Feature", "properties": { "id": 263, "osm_id": "1735282411", "name": "Venoix Gallieni", "operator": "", "network": "", "highway": "bus_stop", "public_transport": "platform", "public_transport_version": "", "ref": "", "mapping_key": "highway", "mapping_value": "bus_stop" }, "geometry": { "type": "Point", "coordinates": [ -0.401012836547068, 49.181248078106755 ] } },
{ "type": "Feature", "properties": { "id": 264, "osm_id": "1735282471", "name": "Charlemagne", "operator": "", "network": "", "highway": "bus_stop", "public_transport": "platform", "public_transport_version": "", "ref": "", "mapping_key": "highway", "mapping_value": "bus_stop" }, "geometry": { "type": "Point", "coordinates": [ -0.399678772837973, 49.173312092182073 ] } },
{ "type": "Feature", "properties": { "id": 265, "osm_id": "1735282523", "name": "5 Continents", "operator": "", "network": "", "highway": "bus_stop", "public_transport": "platform", "public_transport_version": "", "ref": "", "mapping_key": "highway", "mapping_value": "bus_stop" }, "geometry": { "type": "Point", "coordinates": [ -0.382207114767937, 49.202173583198501 ] } },
{ "type": "Feature", "properties": { "id": 266, "osm_id": "1735282542", "name": "Porte de l'Europe", "operator": "", "network": "", "highway": "bus_stop", "public_transport": "platform", "public_transport_version": "", "ref": "", "mapping_key": "highway", "mapping_value": "bus_stop" }, "geometry": { "type": "Point", "coordinates": [ -0.378669448714533, 49.200255384657218 ] } },
{ "type": "Feature", "properties": { "id": 267, "osm_id": "1735282543", "name": "Étrier", "operator": "", "network": "", "highway": "bus_stop", "public_transport": "platform", "public_transport_version": "", "ref": "", "mapping_key": "highway", "mapping_value": "bus_stop" }, "geometry": { "type": "Point", "coordinates": [ -0.369761916393003, 49.193417428048249 ] } },
{ "type": "Feature", "properties": { "id": 268, "osm_id": "1735282545", "name": "Henry Chéron", "operator": "", "network": "", "highway": "bus_stop", "public_transport": "platform", "public_transport_version": "", "ref": "", "mapping_key": "highway", "mapping_value": "bus_stop" }, "geometry": { "type": "Point", "coordinates": [ -0.398593232557971, 49.171535547804467 ] } },
{ "type": "Feature", "properties": { "id": 269, "osm_id": "1735282548", "name": "Parc des Sports", "operator": "", "network": "", "highway": "bus_stop", "public_transport": "platform", "public_transport_version": "", "ref": "", "mapping_key": "highway", "mapping_value": "bus_stop" }, "geometry": { "type": "Point", "coordinates": [ -0.390615756212583, 49.174052549508438 ] } },
{ "type": "Feature", "properties": { "id": 270, "osm_id": "1735282693", "name": "", "operator": "", "network": "", "highway": "bus_stop", "public_transport": "platform", "public_transport_version": "", "ref": "", "mapping_key": "highway", "mapping_value": "bus_stop" }, "geometry": { "type": "Point", "coordinates": [ -0.36618074826211, 49.186831682905776 ] } },
{ "type": "Feature", "properties": { "id": 271, "osm_id": "1735282701", "name": "Faculté de Droit", "operator": "", "network": "", "highway": "bus_stop", "public_transport": "platform", "public_transport_version": "", "ref": "", "mapping_key": "highway", "mapping_value": "bus_stop" }, "geometry": { "type": "Point", "coordinates": [ -0.366661534228143, 49.190088387564813 ] } },
{ "type": "Feature", "properties": { "id": 272, "osm_id": "1735282703", "name": "La Folie-Mémorial", "operator": "", "network": "", "highway": "bus_stop", "public_transport": "platform", "public_transport_version": "", "ref": "", "mapping_key": "highway", "mapping_value": "bus_stop" }, "geometry": { "type": "Point", "coordinates": [ -0.382865932357362, 49.19855109228498 ] } },
{ "type": "Feature", "properties": { "id": 273, "osm_id": "1735282704", "name": "Sablons", "operator": "", "network": "", "highway": "bus_stop", "public_transport": "platform", "public_transport_version": "", "ref": "", "mapping_key": "highway", "mapping_value": "bus_stop" }, "geometry": { "type": "Point", "coordinates": [ -0.370758776137421, 49.194771775963034 ] } },
{ "type": "Feature", "properties": { "id": 274, "osm_id": "1735282730", "name": "Acadiens", "operator": "", "network": "", "highway": "bus_stop", "public_transport": "platform", "public_transport_version": "", "ref": "", "mapping_key": "highway", "mapping_value": "bus_stop" }, "geometry": { "type": "Point", "coordinates": [ -0.381945767026991, 49.204726124171913 ] } },
{ "type": "Feature", "properties": { "id": 275, "osm_id": "1735282743", "name": "", "operator": "", "network": "", "highway": "bus_stop", "public_transport": "platform", "public_transport_version": "", "ref": "", "mapping_key": "highway", "mapping_value": "bus_stop" }, "geometry": { "type": "Point", "coordinates": [ -0.363821410156845, 49.188846273333539 ] } },
{ "type": "Feature", "properties": { "id": 276, "osm_id": "1735282768", "name": "Chevaliers", "operator": "Twisto", "network": "", "highway": "bus_stop", "public_transport": "platform", "public_transport_version": "", "ref": "", "mapping_key": "highway", "mapping_value": "bus_stop" }, "geometry": { "type": "Point", "coordinates": [ -0.40208421141071, 49.176786977780701 ] } },
{ "type": "Feature", "properties": { "id": 277, "osm_id": "1735282781", "name": "Porte de l'Europe", "operator": "", "network": "", "highway": "bus_stop", "public_transport": "platform", "public_transport_version": "", "ref": "", "mapping_key": "highway", "mapping_value": "bus_stop" }, "geometry": { "type": "Point", "coordinates": [ -0.379474781971425, 49.200160333875225 ] } },
{ "type": "Feature", "properties": { "id": 278, "osm_id": "1735282800", "name": "Sainte-Ursule", "operator": "", "network": "", "highway": "bus_stop", "public_transport": "platform", "public_transport_version": "", "ref": "", "mapping_key": "highway", "mapping_value": "bus_stop" }, "geometry": { "type": "Point", "coordinates": [ -0.379959675070012, 49.200885368499733 ] } },
{ "type": "Feature", "properties": { "id": 279, "osm_id": "1735282802", "name": "Porte de l'Asie", "operator": "", "network": "", "highway": "bus_stop", "public_transport": "platform", "public_transport_version": "", "ref": "", "mapping_key": "highway", "mapping_value": "bus_stop" }, "geometry": { "type": "Point", "coordinates": [ -0.37838815204401, 49.205937895913685 ] } },
{ "type": "Feature", "properties": { "id": 280, "osm_id": "1735282803", "name": "Pont de Venoix", "operator": "Twisto", "network": "", "highway": "bus_stop", "public_transport": "platform", "public_transport_version": "", "ref": "", "mapping_key": "highway", "mapping_value": "bus_stop" }, "geometry": { "type": "Point", "coordinates": [ -0.387276238350182, 49.175138592702623 ] } },
{ "type": "Feature", "properties": { "id": 281, "osm_id": "1735282804", "name": "Parc des Sports", "operator": "", "network": "", "highway": "bus_stop", "public_transport": "platform", "public_transport_version": "", "ref": "", "mapping_key": "highway", "mapping_value": "bus_stop" }, "geometry": { "type": "Point", "coordinates": [ -0.391331654562634, 49.173928162065316 ] } },
{ "type": "Feature", "properties": { "id": 282, "osm_id": "1735282805", "name": "Place de la Mare", "operator": "", "network": "", "highway": "bus_stop", "public_transport": "platform", "public_transport_version": "", "ref": "", "mapping_key": "highway", "mapping_value": "bus_stop" }, "geometry": { "type": "Point", "coordinates": [ -0.366915841170425, 49.186628589391908 ] } },
{ "type": "Feature", "properties": { "id": 283, "osm_id": "1735282814", "name": "Place Villers", "operator": "", "network": "", "highway": "bus_stop", "public_transport": "platform", "public_transport_version": "", "ref": "", "mapping_key": "highway", "mapping_value": "bus_stop" }, "geometry": { "type": "Point", "coordinates": [ -0.378985530283188, 49.178620183823774 ] } },
{ "type": "Feature", "properties": { "id": 284, "osm_id": "1735282815", "name": "Brocéliande", "operator": "Twisto", "network": "", "highway": "bus_stop", "public_transport": "platform", "public_transport_version": "", "ref": "", "mapping_key": "highway", "mapping_value": "bus_stop" }, "geometry": { "type": "Point", "coordinates": [ -0.402521914394413, 49.178597552685225 ] } },
{ "type": "Feature", "properties": { "id": 285, "osm_id": "1735282821", "name": "Faculté de Droit", "operator": "", "network": "", "highway": "bus_stop", "public_transport": "platform", "public_transport_version": "", "ref": "", "mapping_key": "highway", "mapping_value": "bus_stop" }, "geometry": { "type": "Point", "coordinates": [ -0.366703611382064, 49.19023934564099 ] } },
{ "type": "Feature", "properties": { "id": 286, "osm_id": "1735282822", "name": "Fontaine Venoise", "operator": "", "network": "", "highway": "bus_stop", "public_transport": "platform", "public_transport_version": "", "ref": "", "mapping_key": "highway", "mapping_value": "bus_stop" }, "geometry": { "type": "Point", "coordinates": [ -0.401156334729393, 49.17546154743188 ] } },
{ "type": "Feature", "properties": { "id": 287, "osm_id": "1735282823", "name": "Village des Métiers", "operator": "", "network": "", "highway": "bus_stop", "public_transport": "platform", "public_transport_version": "", "ref": "", "mapping_key": "highway", "mapping_value": "bus_stop" }, "geometry": { "type": "Point", "coordinates": [ -0.375998136173109, 49.205121917639744 ] } },
{ "type": "Feature", "properties": { "id": 289, "osm_id": "1735282830", "name": "Église de Venoix", "operator": "", "network": "", "highway": "bus_stop", "public_transport": "platform", "public_transport_version": "", "ref": "", "mapping_key": "highway", "mapping_value": "bus_stop" }, "geometry": { "type": "Point", "coordinates": [ -0.394908715560945, 49.172754276525886 ] } },
{ "type": "Feature", "properties": { "id": 290, "osm_id": "1735282834", "name": "Quatrans", "operator": "", "network": "", "highway": "bus_stop", "public_transport": "platform", "public_transport_version": "", "ref": "", "mapping_key": "highway", "mapping_value": "bus_stop" }, "geometry": { "type": "Point", "coordinates": [ -0.363398710779791, 49.184980874866056 ] } },
{ "type": "Feature", "properties": { "id": 291, "osm_id": "1735282838", "name": "Chevaliers", "operator": "Twisto", "network": "", "highway": "bus_stop", "public_transport": "platform", "public_transport_version": "", "ref": "", "mapping_key": "highway", "mapping_value": "bus_stop" }, "geometry": { "type": "Point", "coordinates": [ -0.401975749583642, 49.176940366608768 ] } },
{ "type": "Feature", "properties": { "id": 292, "osm_id": "1735282845", "name": "Sablons", "operator": "", "network": "", "highway": "bus_stop", "public_transport": "platform", "public_transport_version": "", "ref": "", "mapping_key": "highway", "mapping_value": "bus_stop" }, "geometry": { "type": "Point", "coordinates": [ -0.37043355829428, 49.194551248090534 ] } },
{ "type": "Feature", "properties": { "id": 293, "osm_id": "1735282847", "name": "Sainte-Ursule", "operator": "", "network": "", "highway": "bus_stop", "public_transport": "platform", "public_transport_version": "", "ref": "", "mapping_key": "highway", "mapping_value": "bus_stop" }, "geometry": { "type": "Point", "coordinates": [ -0.380686050799028, 49.201113020989943 ] } },
{ "type": "Feature", "properties": { "id": 294, "osm_id": "1735282850", "name": "Porte de l'Asie", "operator": "", "network": "", "highway": "bus_stop", "public_transport": "platform", "public_transport_version": "", "ref": "", "mapping_key": "highway", "mapping_value": "bus_stop" }, "geometry": { "type": "Point", "coordinates": [ -0.378864076506204, 49.205953234796503 ] } },
{ "type": "Feature", "properties": { "id": 295, "osm_id": "1735282855", "name": "5 Continents", "operator": "", "network": "", "highway": "bus_stop", "public_transport": "platform", "public_transport_version": "", "ref": "", "mapping_key": "highway", "mapping_value": "bus_stop" }, "geometry": { "type": "Point", "coordinates": [ -0.382205522206334, 49.202012399200463 ] } },
{ "type": "Feature", "properties": { "id": 296, "osm_id": "1735282857", "name": "Pont de Venoix", "operator": "Twisto", "network": "", "highway": "bus_stop", "public_transport": "platform", "public_transport_version": "", "ref": "", "mapping_key": "highway", "mapping_value": "bus_stop" }, "geometry": { "type": "Point", "coordinates": [ -0.38765551946878, 49.175147226062904 ] } },
{ "type": "Feature", "properties": { "id": 297, "osm_id": "1735282895", "name": "Anciennes Boucheries", "operator": "", "network": "", "highway": "bus_stop", "public_transport": "platform", "public_transport_version": "", "ref": "", "mapping_key": "highway", "mapping_value": "bus_stop" }, "geometry": { "type": "Point", "coordinates": [ -0.375297409067826, 49.182503268107006 ] } },
{ "type": "Feature", "properties": { "id": 298, "osm_id": "1735282926", "name": "Place Villers", "operator": "Twisto", "network": "", "highway": "bus_stop", "public_transport": "platform", "public_transport_version": "", "ref": "", "mapping_key": "highway", "mapping_value": "bus_stop" }, "geometry": { "type": "Point", "coordinates": [ -0.379092064272527, 49.178676761670225 ] } },
{ "type": "Feature", "properties": { "id": 299, "osm_id": "1735282949", "name": "Étrier", "operator": "", "network": "", "highway": "bus_stop", "public_transport": "platform", "public_transport_version": "", "ref": "", "mapping_key": "highway", "mapping_value": "bus_stop" }, "geometry": { "type": "Point", "coordinates": [ -0.369502747946882, 49.193280216293324 ] } },
{ "type": "Feature", "properties": { "id": 300, "osm_id": "1735282960", "name": "Village des Métiers", "operator": "", "network": "", "highway": "bus_stop", "public_transport": "platform", "public_transport_version": "", "ref": "", "mapping_key": "highway", "mapping_value": "bus_stop" }, "geometry": { "type": "Point", "coordinates": [ -0.375799904163074, 49.205399526272849 ] } },
{ "type": "Feature", "properties": { "id": 301, "osm_id": "1735283000", "name": "État Major", "operator": "Twisto", "network": "", "highway": "bus_stop", "public_transport": "platform", "public_transport_version": "", "ref": "", "mapping_key": "highway", "mapping_value": "bus_stop" }, "geometry": { "type": "Point", "coordinates": [ -0.377776524569441, 49.180515835045512 ] } },
{ "type": "Feature", "properties": { "id": 302, "osm_id": "1735283007", "name": "Charlemagne", "operator": "", "network": "", "highway": "bus_stop", "public_transport": "platform", "public_transport_version": "", "ref": "", "mapping_key": "highway", "mapping_value": "bus_stop" }, "geometry": { "type": "Point", "coordinates": [ -0.399377527237903, 49.17269853686976 ] } },
{ "type": "Feature", "properties": { "id": 303, "osm_id": "1735283010", "name": "Acadiens", "operator": "", "network": "", "highway": "bus_stop", "public_transport": "platform", "public_transport_version": "", "ref": "", "mapping_key": "highway", "mapping_value": "bus_stop" }, "geometry": { "type": "Point", "coordinates": [ -0.38270793348255, 49.204614561040664 ] } },
{ "type": "Feature", "properties": { "id": 304, "osm_id": "1735283040", "name": "Anciennes Boucheries", "operator": "", "network": "", "highway": "bus_stop", "public_transport": "platform", "public_transport_version": "", "ref": "", "mapping_key": "highway", "mapping_value": "bus_stop" }, "geometry": { "type": "Point", "coordinates": [ -0.373635948220766, 49.182242423280229 ] } },
{ "type": "Feature", "properties": { "id": 305, "osm_id": "1735283052", "name": "Nice Caennais", "operator": "Twisto", "network": "", "highway": "bus_stop", "public_transport": "platform", "public_transport_version": "", "ref": "", "mapping_key": "highway", "mapping_value": "bus_stop" }, "geometry": { "type": "Point", "coordinates": [ -0.38479620083919, 49.176093626750202 ] } },
{ "type": "Feature", "properties": { "id": 306, "osm_id": "1735283064", "name": "Vaugueux", "operator": "", "network": "", "highway": "bus_stop", "public_transport": "platform", "public_transport_version": "", "ref": "", "mapping_key": "highway", "mapping_value": "bus_stop" }, "geometry": { "type": "Point", "coordinates": [ -0.360091882339788, 49.186466399565489 ] } },
{ "type": "Feature", "properties": { "id": 307, "osm_id": "1735283225", "name": "Brocéliande", "operator": "Twisto", "network": "", "highway": "bus_stop", "public_transport": "platform", "public_transport_version": "", "ref": "", "mapping_key": "highway", "mapping_value": "bus_stop" }, "geometry": { "type": "Point", "coordinates": [ -0.402371375413423, 49.179047493247609 ] } },
{ "type": "Feature", "properties": { "id": 308, "osm_id": "1735283399", "name": "État Major", "operator": "", "network": "", "highway": "bus_stop", "public_transport": "platform", "public_transport_version": "", "ref": "", "mapping_key": "highway", "mapping_value": "bus_stop" }, "geometry": { "type": "Point", "coordinates": [ -0.37767082877042, 49.180483229442196 ] } },
{ "type": "Feature", "properties": { "id": 310, "osm_id": "1735283709", "name": "Fontaine Venoise", "operator": "", "network": "", "highway": "bus_stop", "public_transport": "platform", "public_transport_version": "", "ref": "", "mapping_key": "highway", "mapping_value": "bus_stop" }, "geometry": { "type": "Point", "coordinates": [ -0.401075868458918, 49.175614936259954 ] } },
{ "type": "Feature", "properties": { "id": 311, "osm_id": "1735283725", "name": "Église de Venoix", "operator": "", "network": "", "highway": "bus_stop", "public_transport": "platform", "public_transport_version": "", "ref": "", "mapping_key": "highway", "mapping_value": "bus_stop" }, "geometry": { "type": "Point", "coordinates": [ -0.394207234084348, 49.172862989810049 ] } },
{ "type": "Feature", "properties": { "id": 312, "osm_id": "1735410527", "name": "Place du 27 Juin", "operator": "", "network": "", "highway": "bus_stop", "public_transport": "platform", "public_transport_version": "", "ref": "", "mapping_key": "highway", "mapping_value": "bus_stop" }, "geometry": { "type": "Point", "coordinates": [ -0.445683602777081, 49.187217585727922 ] } },
{ "type": "Feature", "properties": { "id": 313, "osm_id": "1735410632", "name": "Route de Caumont", "operator": "", "network": "", "highway": "bus_stop", "public_transport": "platform", "public_transport_version": "", "ref": "", "mapping_key": "highway", "mapping_value": "bus_stop" }, "geometry": { "type": "Point", "coordinates": [ -0.418133879607353, 49.187281036734923 ] } },
{ "type": "Feature", "properties": { "id": 314, "osm_id": "1735410718", "name": "Les Vallées", "operator": "", "network": "", "highway": "bus_stop", "public_transport": "platform", "public_transport_version": "", "ref": "", "mapping_key": "highway", "mapping_value": "bus_stop" }, "geometry": { "type": "Point", "coordinates": [ -0.438206274594052, 49.187077775582978 ] } },
{ "type": "Feature", "properties": { "id": 315, "osm_id": "1735410775", "name": "", "operator": "", "network": "", "highway": "bus_stop", "public_transport": "platform", "public_transport_version": "", "ref": "", "mapping_key": "highway", "mapping_value": "bus_stop" }, "geometry": { "type": "Point", "coordinates": [ -0.385197023448967, 49.18310684895453 ] } },
{ "type": "Feature", "properties": { "id": 316, "osm_id": "1735410852", "name": "", "operator": "", "network": "", "highway": "bus_stop", "public_transport": "platform", "public_transport_version": "", "ref": "", "mapping_key": "highway", "mapping_value": "bus_stop" }, "geometry": { "type": "Point", "coordinates": [ -0.402148835884162, 49.186920195803317 ] } },
{ "type": "Feature", "properties": { "id": 317, "osm_id": "1735411051", "name": "Bernard Palissy", "operator": "", "network": "", "highway": "bus_stop", "public_transport": "platform", "public_transport_version": "", "ref": "", "mapping_key": "highway", "mapping_value": "bus_stop" }, "geometry": { "type": "Point", "coordinates": [ -0.3927449272567, 49.1842673234489 ] } },
{ "type": "Feature", "properties": { "id": 318, "osm_id": "1735411096", "name": "", "operator": "", "network": "", "highway": "bus_stop", "public_transport": "platform", "public_transport_version": "", "ref": "", "mapping_key": "highway", "mapping_value": "bus_stop" }, "geometry": { "type": "Point", "coordinates": [ -0.446839048129561, 49.184606455251298 ] } },
{ "type": "Feature", "properties": { "id": 319, "osm_id": "1735411132", "name": "", "operator": "", "network": "", "highway": "bus_stop", "public_transport": "platform", "public_transport_version": "", "ref": "", "mapping_key": "highway", "mapping_value": "bus_stop" }, "geometry": { "type": "Point", "coordinates": [ -0.42649851606032, 49.187089342609347 ] } },
{ "type": "Feature", "properties": { "id": 320, "osm_id": "1735411296", "name": "", "operator": "", "network": "", "highway": "bus_stop", "public_transport": "platform", "public_transport_version": "", "ref": "", "mapping_key": "highway", "mapping_value": "bus_stop" }, "geometry": { "type": "Point", "coordinates": [ -0.436390167633448, 49.186271352678659 ] } },
{ "type": "Feature", "properties": { "id": 322, "osm_id": "1735411435", "name": "", "operator": "", "network": "", "highway": "bus_stop", "public_transport": "platform", "public_transport_version": "", "ref": "", "mapping_key": "highway", "mapping_value": "bus_stop" }, "geometry": { "type": "Point", "coordinates": [ -0.396071872264343, 49.185167120754571 ] } },
{ "type": "Feature", "properties": { "id": 323, "osm_id": "1735411449", "name": "", "operator": "", "network": "", "highway": "bus_stop", "public_transport": "platform", "public_transport_version": "", "ref": "", "mapping_key": "highway", "mapping_value": "bus_stop" }, "geometry": { "type": "Point", "coordinates": [ -0.410146177340096, 49.187413554624094 ] } },
{ "type": "Feature", "properties": { "id": 325, "osm_id": "1735411664", "name": "", "operator": "", "network": "", "highway": "bus_stop", "public_transport": "platform", "public_transport_version": "", "ref": "", "mapping_key": "highway", "mapping_value": "bus_stop" }, "geometry": { "type": "Point", "coordinates": [ -0.379424574371427, 49.183102155088754 ] } },
{ "type": "Feature", "properties": { "id": 326, "osm_id": "1735411785", "name": "Calvaire St Etienne", "operator": "", "network": "", "highway": "bus_stop", "public_transport": "platform", "public_transport_version": "", "ref": "", "mapping_key": "highway", "mapping_value": "bus_stop" }, "geometry": { "type": "Point", "coordinates": [ -0.390328927485967, 49.183655444517207 ] } },
{ "type": "Feature", "properties": { "id": 328, "osm_id": "1735412236", "name": "", "operator": "", "network": "", "highway": "bus_stop", "public_transport": "platform", "public_transport_version": "", "ref": "", "mapping_key": "highway", "mapping_value": "bus_stop" }, "geometry": { "type": "Point", "coordinates": [ -0.407283925044396, 49.187287658438429 ] } },
{ "type": "Feature", "properties": { "id": 329, "osm_id": "1735412649", "name": "Bernard Palissy", "operator": "", "network": "", "highway": "bus_stop", "public_transport": "platform", "public_transport_version": "", "ref": "", "mapping_key": "highway", "mapping_value": "bus_stop" }, "geometry": { "type": "Point", "coordinates": [ -0.392472683041632, 49.184312753364118 ] } },
{ "type": "Feature", "properties": { "id": 330, "osm_id": "1735412665", "name": "", "operator": "", "network": "", "highway": "bus_stop", "public_transport": "platform", "public_transport_version": "", "ref": "", "mapping_key": "highway", "mapping_value": "bus_stop" }, "geometry": { "type": "Point", "coordinates": [ -0.409736050817799, 49.187308948472477 ] } },
{ "type": "Feature", "properties": { "id": 332, "osm_id": "1735412686", "name": "Cité Bellevue", "operator": "", "network": "", "highway": "bus_stop", "public_transport": "platform", "public_transport_version": "", "ref": "", "mapping_key": "highway", "mapping_value": "bus_stop" }, "geometry": { "type": "Point", "coordinates": [ -0.412122546289368, 49.187286317333928 ] } },
{ "type": "Feature", "properties": { "id": 333, "osm_id": "1735412708", "name": "", "operator": "", "network": "", "highway": "bus_stop", "public_transport": "platform", "public_transport_version": "", "ref": "", "mapping_key": "highway", "mapping_value": "bus_stop" }, "geometry": { "type": "Point", "coordinates": [ -0.379691202711371, 49.182965278609906 ] } },
{ "type": "Feature", "properties": { "id": 334, "osm_id": "1735412824", "name": "", "operator": "", "network": "", "highway": "bus_stop", "public_transport": "platform", "public_transport_version": "", "ref": "", "mapping_key": "highway", "mapping_value": "bus_stop" }, "geometry": { "type": "Point", "coordinates": [ -0.382765433338335, 49.182902330517088 ] } },
{ "type": "Feature", "properties": { "id": 335, "osm_id": "1735413155", "name": "", "operator": "", "network": "", "highway": "bus_stop", "public_transport": "platform", "public_transport_version": "", "ref": "", "mapping_key": "highway", "mapping_value": "bus_stop" }, "geometry": { "type": "Point", "coordinates": [ -0.39534415543082, 49.185099394976916 ] } },
{ "type": "Feature", "properties": { "id": 336, "osm_id": "1735413298", "name": "", "operator": "", "network": "", "highway": "bus_stop", "public_transport": "platform", "public_transport_version": "", "ref": "", "mapping_key": "highway", "mapping_value": "bus_stop" }, "geometry": { "type": "Point", "coordinates": [ -0.44607864187364, 49.187192691475474 ] } },
{ "type": "Feature", "properties": { "id": 337, "osm_id": "1735413318", "name": "", "operator": "", "network": "", "highway": "bus_stop", "public_transport": "platform", "public_transport_version": "", "ref": "", "mapping_key": "highway", "mapping_value": "bus_stop" }, "geometry": { "type": "Point", "coordinates": [ -0.406918976980222, 49.187167545765973 ] } },
{ "type": "Feature", "properties": { "id": 339, "osm_id": "1735413491", "name": "Route de Caumont", "operator": "", "network": "", "highway": "bus_stop", "public_transport": "platform", "public_transport_version": "", "ref": "", "mapping_key": "highway", "mapping_value": "bus_stop" }, "geometry": { "type": "Point", "coordinates": [ -0.417726519113103, 49.187222698688849 ] } },
{ "type": "Feature", "properties": { "id": 341, "osm_id": "1735413733", "name": "Les Vallées", "operator": "", "network": "", "highway": "bus_stop", "public_transport": "platform", "public_transport_version": "", "ref": "", "mapping_key": "highway", "mapping_value": "bus_stop" }, "geometry": { "type": "Point", "coordinates": [ -0.43773093686508, 49.187123037860111 ] } },
{ "type": "Feature", "properties": { "id": 342, "osm_id": "1735413823", "name": "Festyland", "operator": "", "network": "", "highway": "bus_stop", "public_transport": "platform", "public_transport_version": "", "ref": "", "mapping_key": "highway", "mapping_value": "bus_stop" }, "geometry": { "type": "Point", "coordinates": [ -0.430035343923407, 49.186317536965113 ] } },
{ "type": "Feature", "properties": { "id": 343, "osm_id": "1735414006", "name": "", "operator": "", "network": "", "highway": "bus_stop", "public_transport": "platform", "public_transport_version": "", "ref": "", "mapping_key": "highway", "mapping_value": "bus_stop" }, "geometry": { "type": "Point", "coordinates": [ -0.385075234395856, 49.183225871979595 ] } },
{ "type": "Feature", "properties": { "id": 344, "osm_id": "1735414027", "name": "", "operator": "", "network": "", "highway": "bus_stop", "public_transport": "platform", "public_transport_version": "", "ref": "", "mapping_key": "highway", "mapping_value": "bus_stop" }, "geometry": { "type": "Point", "coordinates": [ -0.402117068471142, 49.186788935199615 ] } },
{ "type": "Feature", "properties": { "id": 345, "osm_id": "1735414199", "name": "Cité Bellevue", "operator": "", "network": "", "highway": "bus_stop", "public_transport": "platform", "public_transport_version": "", "ref": "", "mapping_key": "highway", "mapping_value": "bus_stop" }, "geometry": { "type": "Point", "coordinates": [ -0.412750602294153, 49.187367621794735 ] } },
{ "type": "Feature", "properties": { "id": 346, "osm_id": "1735414475", "name": "", "operator": "", "network": "", "highway": "bus_stop", "public_transport": "platform", "public_transport_version": "", "ref": "", "mapping_key": "highway", "mapping_value": "bus_stop" }, "geometry": { "type": "Point", "coordinates": [ -0.383290559572146, 49.183025544493759 ] } },
{ "type": "Feature", "properties": { "id": 347, "osm_id": "1736398331", "name": "Beau Site", "operator": "", "network": "", "highway": "bus_stop", "public_transport": "platform", "public_transport_version": "", "ref": "", "mapping_key": "highway", "mapping_value": "bus_stop" }, "geometry": { "type": "Point", "coordinates": [ -0.379747529100712, 49.145892372330543 ] } },
{ "type": "Feature", "properties": { "id": 349, "osm_id": "1736398556", "name": "Marcel Cachin", "operator": "", "network": "", "highway": "bus_stop", "public_transport": "platform", "public_transport_version": "", "ref": "", "mapping_key": "highway", "mapping_value": "bus_stop" }, "geometry": { "type": "Point", "coordinates": [ -0.374611266474034, 49.145475288828642 ] } },
{ "type": "Feature", "properties": { "id": 350, "osm_id": "1736398633", "name": "Louis Pasteur", "operator": "", "network": "", "highway": "bus_stop", "public_transport": "platform", "public_transport_version": "", "ref": "", "mapping_key": "highway", "mapping_value": "bus_stop" }, "geometry": { "type": "Point", "coordinates": [ -0.379140260215763, 49.143092565213529 ] } },
{ "type": "Feature", "properties": { "id": 351, "osm_id": "1736398635", "name": "Beau Site", "operator": "", "network": "", "highway": "bus_stop", "public_transport": "platform", "public_transport_version": "", "ref": "", "mapping_key": "highway", "mapping_value": "bus_stop" }, "geometry": { "type": "Point", "coordinates": [ -0.379661782231239, 49.145795226072764 ] } },
{ "type": "Feature", "properties": { "id": 353, "osm_id": "1736399120", "name": "Jules Guesde", "operator": "", "network": "", "highway": "bus_stop", "public_transport": "platform", "public_transport_version": "", "ref": "", "mapping_key": "highway", "mapping_value": "bus_stop" }, "geometry": { "type": "Point", "coordinates": [ -0.375753636057539, 49.143870741104131 ] } },
{ "type": "Feature", "properties": { "id": 354, "osm_id": "1736399285", "name": "", "operator": "", "network": "", "highway": "bus_stop", "public_transport": "platform", "public_transport_version": "", "ref": "", "mapping_key": "highway", "mapping_value": "bus_stop" }, "geometry": { "type": "Point", "coordinates": [ -0.382458404225076, 49.143485341196218 ] } },
{ "type": "Feature", "properties": { "id": 355, "osm_id": "1736399705", "name": "Jules Guesde", "operator": "", "network": "", "highway": "bus_stop", "public_transport": "platform", "public_transport_version": "", "ref": "", "mapping_key": "highway", "mapping_value": "bus_stop" }, "geometry": { "type": "Point", "coordinates": [ -0.37622847087232, 49.144029159074144 ] } },
{ "type": "Feature", "properties": { "id": 356, "osm_id": "1736399810", "name": "", "operator": "", "network": "", "highway": "bus_stop", "public_transport": "platform", "public_transport_version": "", "ref": "", "mapping_key": "highway", "mapping_value": "bus_stop" }, "geometry": { "type": "Point", "coordinates": [ -0.382522777241462, 49.143420297627614 ] } },
{ "type": "Feature", "properties": { "id": 357, "osm_id": "1736475475", "name": "Jean Jaurès", "operator": "", "network": "", "highway": "bus_stop", "public_transport": "platform", "public_transport_version": "", "ref": "", "mapping_key": "highway", "mapping_value": "bus_stop" }, "geometry": { "type": "Point", "coordinates": [ -0.374686535964543, 49.149128541326824 ] } },
{ "type": "Feature", "properties": { "id": 358, "osm_id": "1736475479", "name": "", "operator": "", "network": "", "highway": "bus_stop", "public_transport": "platform", "public_transport_version": "", "ref": "", "mapping_key": "highway", "mapping_value": "bus_stop" }, "geometry": { "type": "Point", "coordinates": [ -0.369492605844044, 49.155976640038624 ] } },
{ "type": "Feature", "properties": { "id": 360, "osm_id": "1736475501", "name": "Lyautey", "operator": "", "network": "", "highway": "bus_stop", "public_transport": "platform", "public_transport_version": "", "ref": "", "mapping_key": "highway", "mapping_value": "bus_stop" }, "geometry": { "type": "Point", "coordinates": [ -0.361279765657514, 49.167773330565005 ] } },
{ "type": "Feature", "properties": { "id": 361, "osm_id": "1736475507", "name": "Armand Marie", "operator": "", "network": "", "highway": "bus_stop", "public_transport": "platform", "public_transport_version": "", "ref": "", "mapping_key": "highway", "mapping_value": "bus_stop" }, "geometry": { "type": "Point", "coordinates": [ -0.359674631199795, 49.165342830101785 ] } },
{ "type": "Feature", "properties": { "id": 362, "osm_id": "1736475508", "name": "Grâce de Dieu", "operator": "", "network": "", "highway": "bus_stop", "public_transport": "platform", "public_transport_version": "", "ref": "", "mapping_key": "highway", "mapping_value": "bus_stop" }, "geometry": { "type": "Point", "coordinates": [ -0.360346608377228, 49.161439796889049 ] } },
{ "type": "Feature", "properties": { "id": 364, "osm_id": "1736475526", "name": "Gendarmerie", "operator": "", "network": "", "highway": "bus_stop", "public_transport": "platform", "public_transport_version": "", "ref": "", "mapping_key": "highway", "mapping_value": "bus_stop" }, "geometry": { "type": "Point", "coordinates": [ -0.366036579527531, 49.161781191805325 ] } },
{ "type": "Feature", "properties": { "id": 366, "osm_id": "1736475572", "name": "Lycée Fresnel", "operator": "", "network": "", "highway": "bus_stop", "public_transport": "platform", "public_transport_version": "", "ref": "", "mapping_key": "highway", "mapping_value": "bus_stop" }, "geometry": { "type": "Point", "coordinates": [ -0.358108556410855, 49.162749972174112 ] } },
{ "type": "Feature", "properties": { "id": 367, "osm_id": "1736475575", "name": "Charles de Foucauld", "operator": "", "network": "", "highway": "bus_stop", "public_transport": "platform", "public_transport_version": "", "ref": "", "mapping_key": "highway", "mapping_value": "bus_stop" }, "geometry": { "type": "Point", "coordinates": [ -0.363139709971733, 49.161439880708059 ] } },
{ "type": "Feature", "properties": { "id": 368, "osm_id": "1736475641", "name": "", "operator": "", "network": "", "highway": "bus_stop", "public_transport": "platform", "public_transport_version": "", "ref": "", "mapping_key": "highway", "mapping_value": "bus_stop" }, "geometry": { "type": "Point", "coordinates": [ -0.368972676390172, 49.156754648291169 ] } },
{ "type": "Feature", "properties": { "id": 369, "osm_id": "1736475701", "name": "", "operator": "", "network": "", "highway": "bus_stop", "public_transport": "platform", "public_transport_version": "", "ref": "", "mapping_key": "highway", "mapping_value": "bus_stop" }, "geometry": { "type": "Point", "coordinates": [ -0.368127361455123, 49.15883989816269 ] } },
{ "type": "Feature", "properties": { "id": 370, "osm_id": "1736475714", "name": "", "operator": "", "network": "", "highway": "bus_stop", "public_transport": "platform", "public_transport_version": "", "ref": "", "mapping_key": "highway", "mapping_value": "bus_stop" }, "geometry": { "type": "Point", "coordinates": [ -0.371629655877143, 49.152039660118007 ] } },
{ "type": "Feature", "properties": { "id": 371, "osm_id": "1736475731", "name": "", "operator": "", "network": "", "highway": "bus_stop", "public_transport": "platform", "public_transport_version": "", "ref": "", "mapping_key": "highway", "mapping_value": "bus_stop" }, "geometry": { "type": "Point", "coordinates": [ -0.371734178209721, 49.152137560747107 ] } },
{ "type": "Feature", "properties": { "id": 372, "osm_id": "1736475805", "name": "Rue de Branville", "operator": "", "network": "", "highway": "bus_stop", "public_transport": "platform", "public_transport_version": "", "ref": "", "mapping_key": "highway", "mapping_value": "bus_stop" }, "geometry": { "type": "Point", "coordinates": [ -0.363447241999154, 49.167717423270858 ] } },
{ "type": "Feature", "properties": { "id": 374, "osm_id": "1736475986", "name": "Jean Jaurès", "operator": "", "network": "", "highway": "bus_stop", "public_transport": "platform", "public_transport_version": "", "ref": "", "mapping_key": "highway", "mapping_value": "bus_stop" }, "geometry": { "type": "Point", "coordinates": [ -0.374816036368571, 49.149122925451707 ] } },
{ "type": "Feature", "properties": { "id": 376, "osm_id": "1736476117", "name": "Lyautey", "operator": "", "network": "", "highway": "bus_stop", "public_transport": "platform", "public_transport_version": "", "ref": "", "mapping_key": "highway", "mapping_value": "bus_stop" }, "geometry": { "type": "Point", "coordinates": [ -0.361332571647523, 49.167567471023084 ] } },
{ "type": "Feature", "properties": { "id": 377, "osm_id": "1736476467", "name": "Charles de Foucauld", "operator": "", "network": "", "highway": "bus_stop", "public_transport": "platform", "public_transport_version": "", "ref": "", "mapping_key": "highway", "mapping_value": "bus_stop" }, "geometry": { "type": "Point", "coordinates": [ -0.363041054971376, 49.16125564647632 ] } },
{ "type": "Feature", "properties": { "id": 378, "osm_id": "1736476514", "name": "Résidence Le Pré", "operator": "", "network": "", "highway": "bus_stop", "public_transport": "platform", "public_transport_version": "", "ref": "", "mapping_key": "highway", "mapping_value": "bus_stop" }, "geometry": { "type": "Point", "coordinates": [ -0.366550054915933, 49.162372451255173 ] } },
{ "type": "Feature", "properties": { "id": 379, "osm_id": "1736476568", "name": "Armand Marie", "operator": "", "network": "", "highway": "bus_stop", "public_transport": "platform", "public_transport_version": "", "ref": "", "mapping_key": "highway", "mapping_value": "bus_stop" }, "geometry": { "type": "Point", "coordinates": [ -0.359649150214153, 49.16503479516016 ] } },
{ "type": "Feature", "properties": { "id": 380, "osm_id": "1736476572", "name": "Grâce de Dieu", "operator": "", "network": "", "highway": "bus_stop", "public_transport": "platform", "public_transport_version": "", "ref": "", "mapping_key": "highway", "mapping_value": "bus_stop" }, "geometry": { "type": "Point", "coordinates": [ -0.360067071906371, 49.161251455524713 ] } },
{ "type": "Feature", "properties": { "id": 381, "osm_id": "1736476672", "name": "Gendarmerie", "operator": "", "network": "", "highway": "bus_stop", "public_transport": "platform", "public_transport_version": "", "ref": "", "mapping_key": "highway", "mapping_value": "bus_stop" }, "geometry": { "type": "Point", "coordinates": [ -0.365673810758182, 49.161538954803603 ] } },
{ "type": "Feature", "properties": { "id": 382, "osm_id": "1736476939", "name": "Lycée Fresnel", "operator": "", "network": "", "highway": "bus_stop", "public_transport": "platform", "public_transport_version": "", "ref": "", "mapping_key": "highway", "mapping_value": "bus_stop" }, "geometry": { "type": "Point", "coordinates": [ -0.357941505080618, 49.162734633291294 ] } },
{ "type": "Feature", "properties": { "id": 384, "osm_id": "1736477026", "name": "Rue de Branville", "operator": "", "network": "", "highway": "bus_stop", "public_transport": "platform", "public_transport_version": "", "ref": "", "mapping_key": "highway", "mapping_value": "bus_stop" }, "geometry": { "type": "Point", "coordinates": [ -0.363649664960803, 49.167541068028086 ] } },
{ "type": "Feature", "properties": { "id": 385, "osm_id": "1736477052", "name": "", "operator": "", "network": "", "highway": "bus_stop", "public_transport": "platform", "public_transport_version": "", "ref": "", "mapping_key": "highway", "mapping_value": "bus_stop" }, "geometry": { "type": "Point", "coordinates": [ -0.368345710032798, 49.158749625065511 ] } },
{ "type": "Feature", "properties": { "id": 386, "osm_id": "1736524385", "name": "", "operator": "", "network": "", "highway": "bus_stop", "public_transport": "platform", "public_transport_version": "", "ref": "", "mapping_key": "highway", "mapping_value": "bus_stop" }, "geometry": { "type": "Point", "coordinates": [ -0.374029813850882, 49.170469537358848 ] } },
{ "type": "Feature", "properties": { "id": 387, "osm_id": "1736524387", "name": "Lycée Malherbe", "operator": "", "network": "", "highway": "bus_stop", "public_transport": "platform", "public_transport_version": "", "ref": "", "mapping_key": "highway", "mapping_value": "bus_stop" }, "geometry": { "type": "Point", "coordinates": [ -0.371300917634699, 49.175810486061003 ] } },
{ "type": "Feature", "properties": { "id": 389, "osm_id": "1736524437", "name": "", "operator": "", "network": "", "highway": "bus_stop", "public_transport": "platform", "public_transport_version": "", "ref": "", "mapping_key": "highway", "mapping_value": "bus_stop" }, "geometry": { "type": "Point", "coordinates": [ -0.373952616522644, 49.17113992197465 ] } },
{ "type": "Feature", "properties": { "id": 390, "osm_id": "1736524708", "name": "Lycée Malherbe", "operator": "", "network": "", "highway": "bus_stop", "public_transport": "platform", "public_transport_version": "", "ref": "", "mapping_key": "highway", "mapping_value": "bus_stop" }, "geometry": { "type": "Point", "coordinates": [ -0.370967066431291, 49.175963120517785 ] } },
{ "type": "Feature", "properties": { "id": 391, "osm_id": "1743213308", "name": "", "operator": "", "network": "", "highway": "bus_stop", "public_transport": "platform", "public_transport_version": "", "ref": "", "mapping_key": "highway", "mapping_value": "bus_stop" }, "geometry": { "type": "Point", "coordinates": [ -0.33227025023109, 49.197536295267724 ] } },
{ "type": "Feature", "properties": { "id": 392, "osm_id": "1743213327", "name": "Le Bois", "operator": "", "network": "", "highway": "bus_stop", "public_transport": "platform", "public_transport_version": "", "ref": "", "mapping_key": "highway", "mapping_value": "bus_stop" }, "geometry": { "type": "Point", "coordinates": [ -0.330686741083554, 49.211929950854383 ] } },
{ "type": "Feature", "properties": { "id": 394, "osm_id": "1743213334", "name": "", "operator": "", "network": "", "highway": "bus_stop", "public_transport": "platform", "public_transport_version": "", "ref": "", "mapping_key": "highway", "mapping_value": "bus_stop" }, "geometry": { "type": "Point", "coordinates": [ -0.324627714736522, 49.208895785724586 ] } },
{ "type": "Feature", "properties": { "id": 395, "osm_id": "1743213338", "name": "", "operator": "", "network": "", "highway": "bus_stop", "public_transport": "platform", "public_transport_version": "", "ref": "", "mapping_key": "highway", "mapping_value": "bus_stop" }, "geometry": { "type": "Point", "coordinates": [ -0.326426052062374, 49.211243389165425 ] } },
{ "type": "Feature", "properties": { "id": 396, "osm_id": "1743213377", "name": "Le Bois", "operator": "", "network": "", "highway": "bus_stop", "public_transport": "platform", "public_transport_version": "", "ref": "", "mapping_key": "highway", "mapping_value": "bus_stop" }, "geometry": { "type": "Point", "coordinates": [ -0.330509715288514, 49.21195786259193 ] } },
{ "type": "Feature", "properties": { "id": 397, "osm_id": "1743213538", "name": "", "operator": "", "network": "", "highway": "bus_stop", "public_transport": "platform", "public_transport_version": "", "ref": "", "mapping_key": "highway", "mapping_value": "bus_stop" }, "geometry": { "type": "Point", "coordinates": [ -0.334066743538273, 49.205945691083649 ] } },
{ "type": "Feature", "properties": { "id": 398, "osm_id": "1743213568", "name": "", "operator": "", "network": "", "highway": "bus_stop", "public_transport": "platform", "public_transport_version": "", "ref": "", "mapping_key": "highway", "mapping_value": "bus_stop" }, "geometry": { "type": "Point", "coordinates": [ -0.335079864174844, 49.208050638427615 ] } },
{ "type": "Feature", "properties": { "id": 399, "osm_id": "1743213574", "name": "", "operator": "", "network": "", "highway": "bus_stop", "public_transport": "platform", "public_transport_version": "", "ref": "", "mapping_key": "highway", "mapping_value": "bus_stop" }, "geometry": { "type": "Point", "coordinates": [ -0.337391676889126, 49.199866967264143 ] } },
{ "type": "Feature", "properties": { "id": 400, "osm_id": "1743213589", "name": "", "operator": "", "network": "", "highway": "bus_stop", "public_transport": "platform", "public_transport_version": "", "ref": "", "mapping_key": "highway", "mapping_value": "bus_stop" }, "geometry": { "type": "Point", "coordinates": [ -0.328603167592689, 49.195274187239249 ] } },
{ "type": "Feature", "properties": { "id": 401, "osm_id": "1743213657", "name": "", "operator": "", "network": "", "highway": "bus_stop", "public_transport": "platform", "public_transport_version": "", "ref": "", "mapping_key": "highway", "mapping_value": "bus_stop" }, "geometry": { "type": "Point", "coordinates": [ -0.326392608268719, 49.211394263422548 ] } },
{ "type": "Feature", "properties": { "id": 402, "osm_id": "1743213664", "name": "", "operator": "", "network": "", "highway": "bus_stop", "public_transport": "platform", "public_transport_version": "", "ref": "", "mapping_key": "highway", "mapping_value": "bus_stop" }, "geometry": { "type": "Point", "coordinates": [ -0.33729855394489, 49.199959838751305 ] } },
{ "type": "Feature", "properties": { "id": 404, "osm_id": "1743214206", "name": "", "operator": "", "network": "", "highway": "bus_stop", "public_transport": "platform", "public_transport_version": "", "ref": "", "mapping_key": "highway", "mapping_value": "bus_stop" }, "geometry": { "type": "Point", "coordinates": [ -0.334220551461499, 49.207925999527397 ] } },
{ "type": "Feature", "properties": { "id": 405, "osm_id": "1743214301", "name": "", "operator": "", "network": "", "highway": "bus_stop", "public_transport": "platform", "public_transport_version": "", "ref": "", "mapping_key": "highway", "mapping_value": "bus_stop" }, "geometry": { "type": "Point", "coordinates": [ -0.334914740682336, 49.205684594799791 ] } },
{ "type": "Feature", "properties": { "id": 407, "osm_id": "1743214365", "name": "", "operator": "", "network": "", "highway": "bus_stop", "public_transport": "platform", "public_transport_version": "", "ref": "", "mapping_key": "highway", "mapping_value": "bus_stop" }, "geometry": { "type": "Point", "coordinates": [ -0.335307600484072, 49.196890972542413 ] } },
{ "type": "Feature", "properties": { "id": 408, "osm_id": "1743214550", "name": "", "operator": "", "network": "", "highway": "bus_stop", "public_transport": "platform", "public_transport_version": "", "ref": "", "mapping_key": "highway", "mapping_value": "bus_stop" }, "geometry": { "type": "Point", "coordinates": [ -0.335575905204649, 49.196874124917017 ] } },
{ "type": "Feature", "properties": { "id": 409, "osm_id": "1743214617", "name": "Drakkar", "operator": "", "network": "", "highway": "bus_stop", "public_transport": "platform", "public_transport_version": "", "ref": "", "mapping_key": "highway", "mapping_value": "bus_stop" }, "geometry": { "type": "Point", "coordinates": [ -0.33252740702045, 49.209677733471665 ] } },
{ "type": "Feature", "properties": { "id": 410, "osm_id": "1743214632", "name": "", "operator": "", "network": "", "highway": "bus_stop", "public_transport": "platform", "public_transport_version": "", "ref": "", "mapping_key": "highway", "mapping_value": "bus_stop" }, "geometry": { "type": "Point", "coordinates": [ -0.332213420927559, 49.197334375220308 ] } },
{ "type": "Feature", "properties": { "id": 411, "osm_id": "1743214671", "name": "Drakkar", "operator": "", "network": "", "highway": "bus_stop", "public_transport": "platform", "public_transport_version": "", "ref": "", "mapping_key": "highway", "mapping_value": "bus_stop" }, "geometry": { "type": "Point", "coordinates": [ -0.332270836964312, 49.209830619385549 ] } },
{ "type": "Feature", "properties": { "id": 412, "osm_id": "1743497966", "name": "Pommier Gris", "operator": "", "network": "", "highway": "bus_stop", "public_transport": "platform", "public_transport_version": "", "ref": "", "mapping_key": "highway", "mapping_value": "bus_stop" }, "geometry": { "type": "Point", "coordinates": [ -0.332861342042889, 49.160008335465058 ] } },
{ "type": "Feature", "properties": { "id": 414, "osm_id": "1743497988", "name": "Coudriers", "operator": "", "network": "", "highway": "bus_stop", "public_transport": "platform", "public_transport_version": "", "ref": "", "mapping_key": "highway", "mapping_value": "bus_stop" }, "geometry": { "type": "Point", "coordinates": [ -0.339728802951015, 49.162136081585665 ] } },
{ "type": "Feature", "properties": { "id": 415, "osm_id": "1743498004", "name": "", "operator": "", "network": "", "highway": "bus_stop", "public_transport": "platform", "public_transport_version": "", "ref": "", "mapping_key": "highway", "mapping_value": "bus_stop" }, "geometry": { "type": "Point", "coordinates": [ -0.335824763909869, 49.160576293224125 ] } },
{ "type": "Feature", "properties": { "id": 416, "osm_id": "1743498029", "name": "Coudriers", "operator": "", "network": "", "highway": "bus_stop", "public_transport": "platform", "public_transport_version": "", "ref": "", "mapping_key": "highway", "mapping_value": "bus_stop" }, "geometry": { "type": "Point", "coordinates": [ -0.33955202861307, 49.162148654440465 ] } },
{ "type": "Feature", "properties": { "id": 417, "osm_id": "1743498051", "name": "", "operator": "", "network": "", "highway": "bus_stop", "public_transport": "platform", "public_transport_version": "", "ref": "", "mapping_key": "highway", "mapping_value": "bus_stop" }, "geometry": { "type": "Point", "coordinates": [ -0.335709848017359, 49.160459281855815 ] } },
{ "type": "Feature", "properties": { "id": 418, "osm_id": "1743498101", "name": "Jonchets", "operator": "", "network": "", "highway": "bus_stop", "public_transport": "platform", "public_transport_version": "", "ref": "", "mapping_key": "highway", "mapping_value": "bus_stop" }, "geometry": { "type": "Point", "coordinates": [ -0.33907090737091, 49.163819586838081 ] } },
{ "type": "Feature", "properties": { "id": 419, "osm_id": "1743498153", "name": "Poincaré", "operator": "", "network": "", "highway": "bus_stop", "public_transport": "platform", "public_transport_version": "", "ref": "", "mapping_key": "highway", "mapping_value": "bus_stop" }, "geometry": { "type": "Point", "coordinates": [ -0.342239518227615, 49.165936436484543 ] } },
{ "type": "Feature", "properties": { "id": 420, "osm_id": "1743498211", "name": "", "operator": "", "network": "", "highway": "bus_stop", "public_transport": "platform", "public_transport_version": "", "ref": "", "mapping_key": "highway", "mapping_value": "bus_stop" }, "geometry": { "type": "Point", "coordinates": [ -0.332969468593831, 49.160119982415345 ] } },
{ "type": "Feature", "properties": { "id": 421, "osm_id": "1743498228", "name": "Jonchets", "operator": "", "network": "", "highway": "bus_stop", "public_transport": "platform", "public_transport_version": "", "ref": "", "mapping_key": "highway", "mapping_value": "bus_stop" }, "geometry": { "type": "Point", "coordinates": [ -0.339051545174584, 49.163942465538604 ] } },
{ "type": "Feature", "properties": { "id": 422, "osm_id": "1744160447", "name": "Rethel", "operator": "", "network": "", "highway": "bus_stop", "public_transport": "platform", "public_transport_version": "", "ref": "", "mapping_key": "highway", "mapping_value": "bus_stop" }, "geometry": { "type": "Point", "coordinates": [ -0.334301520646164, 49.169866040330369 ] } },
{ "type": "Feature", "properties": { "id": 423, "osm_id": "1744160598", "name": "Paul Langevin", "operator": "", "network": "", "highway": "bus_stop", "public_transport": "platform", "public_transport_version": "", "ref": "", "mapping_key": "highway", "mapping_value": "bus_stop" }, "geometry": { "type": "Point", "coordinates": [ -0.326681867747254, 49.168610347415921 ] } },
{ "type": "Feature", "properties": { "id": 424, "osm_id": "1744160610", "name": "Pierre Gringoire", "operator": "", "network": "", "highway": "bus_stop", "public_transport": "platform", "public_transport_version": "", "ref": "", "mapping_key": "highway", "mapping_value": "bus_stop" }, "geometry": { "type": "Point", "coordinates": [ -0.341234025122901, 49.173539660853244 ] } },
{ "type": "Feature", "properties": { "id": 425, "osm_id": "1744160633", "name": "Charlotte Corday", "operator": "", "network": "", "highway": "bus_stop", "public_transport": "platform", "public_transport_version": "", "ref": "", "mapping_key": "highway", "mapping_value": "bus_stop" }, "geometry": { "type": "Point", "coordinates": [ -0.328100840135477, 49.164171375314282 ] } },
{ "type": "Feature", "properties": { "id": 426, "osm_id": "1744160676", "name": "Paul Langevin", "operator": "", "network": "", "highway": "bus_stop", "public_transport": "platform", "public_transport_version": "", "ref": "", "mapping_key": "highway", "mapping_value": "bus_stop" }, "geometry": { "type": "Point", "coordinates": [ -0.326579021795311, 49.168680084850337 ] } },
{ "type": "Feature", "properties": { "id": 427, "osm_id": "1744160700", "name": "Sainte-Thérèse", "operator": "", "network": "", "highway": "bus_stop", "public_transport": "platform", "public_transport_version": "", "ref": "", "mapping_key": "highway", "mapping_value": "bus_stop" }, "geometry": { "type": "Point", "coordinates": [ -0.338694057004233, 49.170417318102068 ] } },
{ "type": "Feature", "properties": { "id": 428, "osm_id": "1744160718", "name": "Charlotte Corday", "operator": "", "network": "", "highway": "bus_stop", "public_transport": "platform", "public_transport_version": "", "ref": "", "mapping_key": "highway", "mapping_value": "bus_stop" }, "geometry": { "type": "Point", "coordinates": [ -0.328265376894791, 49.164243124405438 ] } },
{ "type": "Feature", "properties": { "id": 430, "osm_id": "1744160750", "name": "19 Mars", "operator": "", "network": "", "highway": "bus_stop", "public_transport": "platform", "public_transport_version": "", "ref": "", "mapping_key": "highway", "mapping_value": "bus_stop" }, "geometry": { "type": "Point", "coordinates": [ -0.324753108007997, 49.165058348308079 ] } },
{ "type": "Feature", "properties": { "id": 431, "osm_id": "1744160837", "name": "Sainte-Thérèse", "operator": "", "network": "", "highway": "bus_stop", "public_transport": "platform", "public_transport_version": "", "ref": "", "mapping_key": "highway", "mapping_value": "bus_stop" }, "geometry": { "type": "Point", "coordinates": [ -0.338498423384181, 49.170506333913778 ] } },
{ "type": "Feature", "properties": { "id": 432, "osm_id": "1744160864", "name": "Rethel", "operator": "", "network": "", "highway": "bus_stop", "public_transport": "platform", "public_transport_version": "", "ref": "", "mapping_key": "highway", "mapping_value": "bus_stop" }, "geometry": { "type": "Point", "coordinates": [ -0.334603855893619, 49.169827148299611 ] } },
{ "type": "Feature", "properties": { "id": 433, "osm_id": "1744160875", "name": "19 Mars", "operator": "", "network": "", "highway": "bus_stop", "public_transport": "platform", "public_transport_version": "", "ref": "", "mapping_key": "highway", "mapping_value": "bus_stop" }, "geometry": { "type": "Point", "coordinates": [ -0.32475034197995, 49.164693651700993 ] } },
{ "type": "Feature", "properties": { "id": 434, "osm_id": "1744160942", "name": "", "operator": "", "network": "", "highway": "bus_stop", "public_transport": "platform", "public_transport_version": "", "ref": "", "mapping_key": "highway", "mapping_value": "bus_stop" }, "geometry": { "type": "Point", "coordinates": [ -0.338860773058371, 49.173296585661198 ] } },
{ "type": "Feature", "properties": { "id": 435, "osm_id": "1744204049", "name": "Genève", "operator": "", "network": "", "highway": "bus_stop", "public_transport": "platform", "public_transport_version": "", "ref": "", "mapping_key": "highway", "mapping_value": "bus_stop" }, "geometry": { "type": "Point", "coordinates": [ -0.338375879959784, 49.158765718319614 ] } },
{ "type": "Feature", "properties": { "id": 436, "osm_id": "1744204053", "name": "", "operator": "", "network": "", "highway": "bus_stop", "public_transport": "platform", "public_transport_version": "", "ref": "", "mapping_key": "highway", "mapping_value": "bus_stop" }, "geometry": { "type": "Point", "coordinates": [ -0.346313123169921, 49.160808136665892 ] } },
{ "type": "Feature", "properties": { "id": 437, "osm_id": "1744204059", "name": "Union", "operator": "", "network": "", "highway": "bus_stop", "public_transport": "platform", "public_transport_version": "", "ref": "", "mapping_key": "highway", "mapping_value": "bus_stop" }, "geometry": { "type": "Point", "coordinates": [ -0.353010179986541, 49.169920774158051 ] } },
{ "type": "Feature", "properties": { "id": 438, "osm_id": "1744204060", "name": "", "operator": "", "network": "", "highway": "bus_stop", "public_transport": "platform", "public_transport_version": "", "ref": "", "mapping_key": "highway", "mapping_value": "bus_stop" }, "geometry": { "type": "Point", "coordinates": [ -0.329937566577911, 49.154309144221294 ] } },
{ "type": "Feature", "properties": { "id": 439, "osm_id": "1744204062", "name": "Guillaume de Normandie", "operator": "", "network": "", "highway": "bus_stop", "public_transport": "platform", "public_transport_version": "", "ref": "", "mapping_key": "highway", "mapping_value": "bus_stop" }, "geometry": { "type": "Point", "coordinates": [ -0.348361660305528, 49.162298355231108 ] } },
{ "type": "Feature", "properties": { "id": 440, "osm_id": "1744204071", "name": "Falaise", "operator": "", "network": "", "highway": "bus_stop", "public_transport": "platform", "public_transport_version": "", "ref": "", "mapping_key": "highway", "mapping_value": "bus_stop" }, "geometry": { "type": "Point", "coordinates": [ -0.351167167116756, 49.167139826323172 ] } },
{ "type": "Feature", "properties": { "id": 441, "osm_id": "1744204076", "name": "Liberté", "operator": "", "network": "", "highway": "bus_stop", "public_transport": "platform", "public_transport_version": "", "ref": "", "mapping_key": "highway", "mapping_value": "bus_stop" }, "geometry": { "type": "Point", "coordinates": [ -0.342490220951532, 49.160797324010829 ] } },
{ "type": "Feature", "properties": { "id": 442, "osm_id": "1744204078", "name": "Boutrois", "operator": "", "network": "", "highway": "bus_stop", "public_transport": "platform", "public_transport_version": "", "ref": "", "mapping_key": "highway", "mapping_value": "bus_stop" }, "geometry": { "type": "Point", "coordinates": [ -0.352011140947297, 49.168597020189871 ] } },
{ "type": "Feature", "properties": { "id": 443, "osm_id": "1744204088", "name": "Vaucelles", "operator": "", "network": "", "highway": "bus_stop", "public_transport": "platform", "public_transport_version": "", "ref": "", "mapping_key": "highway", "mapping_value": "bus_stop" }, "geometry": { "type": "Point", "coordinates": [ -0.353988348086887, 49.173901591432255 ] } },
{ "type": "Feature", "properties": { "id": 444, "osm_id": "1744204094", "name": "Boutrois", "operator": "", "network": "", "highway": "bus_stop", "public_transport": "platform", "public_transport_version": "", "ref": "", "mapping_key": "highway", "mapping_value": "bus_stop" }, "geometry": { "type": "Point", "coordinates": [ -0.35163764334186, 49.167660091053165 ] } },
{ "type": "Feature", "properties": { "id": 445, "osm_id": "1744204100", "name": "", "operator": "", "network": "", "highway": "bus_stop", "public_transport": "platform", "public_transport_version": "", "ref": "", "mapping_key": "highway", "mapping_value": "bus_stop" }, "geometry": { "type": "Point", "coordinates": [ -0.328046441583893, 49.154328338779557 ] } },
{ "type": "Feature", "properties": { "id": 446, "osm_id": "1744204109", "name": "", "operator": "", "network": "", "highway": "bus_stop", "public_transport": "platform", "public_transport_version": "", "ref": "", "mapping_key": "highway", "mapping_value": "bus_stop" }, "geometry": { "type": "Point", "coordinates": [ -0.336096505210776, 49.154622040666744 ] } },
{ "type": "Feature", "properties": { "id": 447, "osm_id": "1744204130", "name": "", "operator": "", "network": "", "highway": "bus_stop", "public_transport": "platform", "public_transport_version": "", "ref": "", "mapping_key": "highway", "mapping_value": "bus_stop" }, "geometry": { "type": "Point", "coordinates": [ -0.336051075295558, 49.154733519978947 ] } },
{ "type": "Feature", "properties": { "id": 448, "osm_id": "1744204166", "name": "Genève", "operator": "", "network": "", "highway": "bus_stop", "public_transport": "platform", "public_transport_version": "", "ref": "", "mapping_key": "highway", "mapping_value": "bus_stop" }, "geometry": { "type": "Point", "coordinates": [ -0.338385519148432, 49.158979624488602 ] } },
{ "type": "Feature", "properties": { "id": 449, "osm_id": "1744204194", "name": "", "operator": "", "network": "", "highway": "bus_stop", "public_transport": "platform", "public_transport_version": "", "ref": "", "mapping_key": "highway", "mapping_value": "bus_stop" }, "geometry": { "type": "Point", "coordinates": [ -0.327951474620932, 49.158471848794314 ] } },
{ "type": "Feature", "properties": { "id": 450, "osm_id": "1744204212", "name": "", "operator": "", "network": "", "highway": "bus_stop", "public_transport": "platform", "public_transport_version": "", "ref": "", "mapping_key": "highway", "mapping_value": "bus_stop" }, "geometry": { "type": "Point", "coordinates": [ -0.326619925482788, 49.157132755943316 ] } },
{ "type": "Feature", "properties": { "id": 451, "osm_id": "1744204223", "name": "", "operator": "", "network": "", "highway": "bus_stop", "public_transport": "platform", "public_transport_version": "", "ref": "", "mapping_key": "highway", "mapping_value": "bus_stop" }, "geometry": { "type": "Point", "coordinates": [ -0.346596012402045, 49.160748457515297 ] } },
{ "type": "Feature", "properties": { "id": 452, "osm_id": "1744204229", "name": "", "operator": "", "network": "", "highway": "bus_stop", "public_transport": "platform", "public_transport_version": "", "ref": "", "mapping_key": "highway", "mapping_value": "bus_stop" }, "geometry": { "type": "Point", "coordinates": [ -0.328047615050338, 49.158617777728587 ] } },
{ "type": "Feature", "properties": { "id": 453, "osm_id": "1744204261", "name": "Guillaume de Normandie", "operator": "", "network": "", "highway": "bus_stop", "public_transport": "platform", "public_transport_version": "", "ref": "", "mapping_key": "highway", "mapping_value": "bus_stop" }, "geometry": { "type": "Point", "coordinates": [ -0.348340957004694, 49.161923851797312 ] } },
{ "type": "Feature", "properties": { "id": 454, "osm_id": "1744204269", "name": "", "operator": "", "network": "", "highway": "bus_stop", "public_transport": "platform", "public_transport_version": "", "ref": "", "mapping_key": "highway", "mapping_value": "bus_stop" }, "geometry": { "type": "Point", "coordinates": [ -0.350857036699324, 49.166248243282602 ] } },
{ "type": "Feature", "properties": { "id": 455, "osm_id": "1744204274", "name": "Château d'Eau", "operator": "", "network": "", "highway": "bus_stop", "public_transport": "platform", "public_transport_version": "", "ref": "", "mapping_key": "highway", "mapping_value": "bus_stop" }, "geometry": { "type": "Point", "coordinates": [ -0.342811247843059, 49.161660660037676 ] } },
{ "type": "Feature", "properties": { "id": 456, "osm_id": "1744204282", "name": "", "operator": "", "network": "", "highway": "bus_stop", "public_transport": "platform", "public_transport_version": "", "ref": "", "mapping_key": "highway", "mapping_value": "bus_stop" }, "geometry": { "type": "Point", "coordinates": [ -0.329528781160121, 49.154082329921401 ] } },
{ "type": "Feature", "properties": { "id": 457, "osm_id": "1744204285", "name": "", "operator": "", "network": "", "highway": "bus_stop", "public_transport": "platform", "public_transport_version": "", "ref": "", "mapping_key": "highway", "mapping_value": "bus_stop" }, "geometry": { "type": "Point", "coordinates": [ -0.327613851561097, 49.15478867290183 ] } },
{ "type": "Feature", "properties": { "id": 458, "osm_id": "1744204294", "name": "Vaucelles", "operator": "", "network": "", "highway": "bus_stop", "public_transport": "platform", "public_transport_version": "", "ref": "", "mapping_key": "highway", "mapping_value": "bus_stop" }, "geometry": { "type": "Point", "coordinates": [ -0.353808472444769, 49.173839481529747 ] } },
{ "type": "Feature", "properties": { "id": 459, "osm_id": "1744204295", "name": "", "operator": "", "network": "", "highway": "bus_stop", "public_transport": "platform", "public_transport_version": "", "ref": "", "mapping_key": "highway", "mapping_value": "bus_stop" }, "geometry": { "type": "Point", "coordinates": [ -0.326460417865405, 49.157133342676559 ] } },
{ "type": "Feature", "properties": { "id": 460, "osm_id": "1747876287", "name": "", "operator": "", "network": "", "highway": "bus_stop", "public_transport": "platform", "public_transport_version": "", "ref": "", "mapping_key": "highway", "mapping_value": "bus_stop" }, "geometry": { "type": "Point", "coordinates": [ -0.346223436805985, 49.193744992824271 ] } },
{ "type": "Feature", "properties": { "id": 461, "osm_id": "1747876448", "name": "Délivrande", "operator": "", "network": "", "highway": "bus_stop", "public_transport": "platform", "public_transport_version": "", "ref": "", "mapping_key": "highway", "mapping_value": "bus_stop" }, "geometry": { "type": "Point", "coordinates": [ -0.359328961512915, 49.189945643753781 ] } },
{ "type": "Feature", "properties": { "id": 462, "osm_id": "1747876451", "name": "", "operator": "", "network": "", "highway": "bus_stop", "public_transport": "platform", "public_transport_version": "", "ref": "", "mapping_key": "highway", "mapping_value": "bus_stop" }, "geometry": { "type": "Point", "coordinates": [ -0.343047114598363, 49.193847922595253 ] } },
{ "type": "Feature", "properties": { "id": 463, "osm_id": "1747876476", "name": "Pigacière", "operator": "", "network": "", "highway": "bus_stop", "public_transport": "platform", "public_transport_version": "", "ref": "", "mapping_key": "highway", "mapping_value": "bus_stop" }, "geometry": { "type": "Point", "coordinates": [ -0.359507747507621, 49.188790785134543 ] } },
{ "type": "Feature", "properties": { "id": 464, "osm_id": "1747876487", "name": "", "operator": "", "network": "", "highway": "bus_stop", "public_transport": "platform", "public_transport_version": "", "ref": "", "mapping_key": "highway", "mapping_value": "bus_stop" }, "geometry": { "type": "Point", "coordinates": [ -0.34605152397188, 49.193837277578218 ] } },
{ "type": "Feature", "properties": { "id": 465, "osm_id": "1747876495", "name": "Croix Guérin", "operator": "", "network": "", "highway": "bus_stop", "public_transport": "platform", "public_transport_version": "", "ref": "", "mapping_key": "highway", "mapping_value": "bus_stop" }, "geometry": { "type": "Point", "coordinates": [ -0.35797193138913, 49.190421316758901 ] } },
{ "type": "Feature", "properties": { "id": 466, "osm_id": "1747876496", "name": "", "operator": "", "network": "", "highway": "bus_stop", "public_transport": "platform", "public_transport_version": "", "ref": "", "mapping_key": "highway", "mapping_value": "bus_stop" }, "geometry": { "type": "Point", "coordinates": [ -0.354457064112353, 49.192557277144594 ] } },
{ "type": "Feature", "properties": { "id": 467, "osm_id": "1747876505", "name": "", "operator": "", "network": "", "highway": "bus_stop", "public_transport": "platform", "public_transport_version": "", "ref": "", "mapping_key": "highway", "mapping_value": "bus_stop" }, "geometry": { "type": "Point", "coordinates": [ -0.349732269112479, 49.193538043634931 ] } },
{ "type": "Feature", "properties": { "id": 469, "osm_id": "1747876626", "name": "", "operator": "", "network": "", "highway": "bus_stop", "public_transport": "platform", "public_transport_version": "", "ref": "", "mapping_key": "highway", "mapping_value": "bus_stop" }, "geometry": { "type": "Point", "coordinates": [ -0.349605534736497, 49.193616917343803 ] } },
{ "type": "Feature", "properties": { "id": 470, "osm_id": "1747876640", "name": "Croix Guérin", "operator": "", "network": "", "highway": "bus_stop", "public_transport": "platform", "public_transport_version": "", "ref": "", "mapping_key": "highway", "mapping_value": "bus_stop" },